city,state,area,time,number,lat,lon,score
Sandy,Utah,29428,13.7361862,13,40.5649781,-111.8389726,27850.81641
Salt Lake City,Utah,29428,14.35936163,13,40.7607793,-111.8910474,26642.13144
West Jordan,Utah,29428,14.85663458,13,40.6096698,-111.9391031,25750.38094
Bountiful,Utah,29428,15.06009676,13,40.8893895,-111.880771,25402.49283
West Valley City,Utah,29428,15.59416148,13,40.6916132,-112.0010501,24532.51497
Provo,Utah,28964,14.28168538,12,40.2338438,-111.6585337,24336.62349
Orem,Utah,29428,16.21922931,13,40.2968979,-111.6946475,23587.06402
Ogden,Utah,28778,15.33419202,12,41.223,-111.9738304,22520.65186
Reno,Nevada,26127,17.60214331,14,39.5296329,-119.8138027,20780.3103
Sparks,Nevada,26127,18.61033581,14,39.5349112,-119.7526886,19654.56205
Boulder,Colorado,26060,26.08665838,13,40.0149856,-105.2705456,12986.71509
Lakewood,Colorado,22970,18.45919867,10,39.7047095,-105.0813734,12443.66043
Folsom,California,26367,32.72491475,15,38.6779591,-121.1760583,12085.74577
Littleton,Colorado,23770,22.76981113,11,39.613321,-105.0166498,11483.18704
Roseville,California,26367,34.45870382,15,38.7521235,-121.2880059,11477.65169
Citrus Heights,California,26367,34.6702747,15,38.7071247,-121.2810611,11407.6108
Arvada,Colorado,17423,15.29784832,9,39.8027644,-105.0874842,10250.26505
Westminster,Colorado,17423,16.12311278,9,39.8366528,-105.0372046,9725.603368
Elk Grove,California,25167,36.31868665,14,38.4087993,-121.3716178,9701.286928
Sacramento,California,25167,36.88766509,14,38.5815719,-121.4943996,9551.648203
Denver,Colorado,17423,16.61295656,9,39.7392358,-104.990251,9438.837657
Longmont,Colorado,20513,26.75073176,12,40.1672068,-105.1019275,9201.841737
Thornton,Colorado,17423,17.18197839,9,39.8680412,-104.9719243,9126.248239
Centennial,Colorado,17423,18.42333076,9,39.5807452,-104.8771726,8511.327404
Aurora,Colorado,17423,18.94671842,9,39.7294319,-104.8319195,8276.208919
Fort Collins,Colorado,20113,28.25338492,11,40.5852602,-105.084423,7830.672347
Renton,Washington,10946,11.33563989,7,47.4828776,-122.2170661,6759.389036
Bellevue,Washington,10946,11.37562034,7,47.610377,-122.2006786,6735.632669
Kent,Washington,10946,11.60016573,7,47.3809335,-122.2348431,6605.250456
Kirkland,Washington,10946,11.65490623,7,47.6814875,-122.2087353,6574.227067
Auburn,Washington,10946,11.81813455,7,47.3073228,-122.2284532,6483.425929
Colorado Springs,Colorado,17817,24.82325408,9,38.8338816,-104.8213634,6459.789658
Seattle,Washington,10946,12.11150791,7,47.6062095,-122.3320708,6326.379882
Federal Way,Washington,10946,12.1836731,7,47.3223221,-122.3126222,6288.908062
Tacoma,Washington,9946,9.808646675,6,47.2528768,-122.4442906,6084.019741
Everett,Washington,10946,13.41981932,7,47.9789848,-122.2020794,5709.614876
Stockton,California,13230,20.60890199,8,37.9577016,-121.2907796,5135.644785
Spokane Valley,Washington,8720,10.39011325,6,47.6732281,-117.2393748,5035.556276
Spokane,Washington,8720,10.93069964,6,47.6587802,-117.4260466,4786.51886
Manchester,New Hampshire,9730,80.26813574,39,42.9956397,-71.4547891,4727.529754
Olympia,Washington,7946,8.811705021,5,47.0378741,-122.9006951,4508.775533
Chico,California,13285,23.5767078,8,39.7284944,-121.8374777,4507.838876
Yakima,Washington,10694,14.92751414,6,46.6020711,-120.5058987,4298.37141
Las Vegas,Nevada,2535,1.204224567,2,36.1699412,-115.1398296,4210.178184
Nashua,New Hampshire,8943,80.82289683,38,42.7653662,-71.467566,4204.67483
Bend,Oregon,7419,9.187478835,5,44.0581728,-121.3153096,4037.560322
Greeley,Colorado,9977,18.09776445,7,40.4233142,-104.7091322,3858.984915
Albany,New York,7690,77.08398294,38,42.6525793,-73.7562317,3790.930215
North Las Vegas,Nevada,2535,1.350143526,2,36.1988592,-115.1175013,3755.156323
Boise City,Idaho,8296,11.23404047,5,43.6187102,-116.2146068,3692.34917
Anchorage,Alaska,1640,0.988180794,2,61.2180556,-149.9002778,3319.230671
Modesto,California,7170,13.10238238,6,37.6390972,-120.9968782,3283.372349
Gresham,Oregon,5331,6.683064096,4,45.5001357,-122.4302013,3190.75198
Merced,California,7120,15.97929622,7,37.3021632,-120.4829677,3119.035989
Manteca,California,7170,14.12019149,6,37.7974273,-121.2160526,3046.700891
Springfield,Massachusetts,6255,74.36159152,36,42.1014831,-72.589811,3028.176178
Vancouver,Washington,5927,8.084415993,4,45.6387281,-122.6614861,2932.555675
Henderson,Nevada,2535,1.73585855,2,36.0395247,-114.9817213,2920.744896
Lowell,Massachusetts,6192,68.57917151,32,42.6334247,-71.3161718,2889.273749
Lawrence,Massachusetts,6159,64.73589308,30,42.7070354,-71.1631137,2854.212574
Eugene,Oregon,5044,5.337217813,3,44.0520691,-123.0867536,2835.185022
Portland,Oregon,4525,4.797105865,3,45.5230622,-122.6764816,2829.831232
Meridian,Idaho,6242,8.84072129,4,43.6121087,-116.3915131,2824.203951
Worcester,Massachusetts,5811,68.87818918,33,42.2625932,-71.8022934,2784.088872
Concrete,Washington,4944,7.601281148,4,48.5392813,-121.7462513,2601.666695
Nampa,Idaho,6242,9.769511343,4,43.5407172,-116.5634624,2555.706127
Salem,Oregon,5886,11.76578429,5,44.9428975,-123.0350963,2501.320718
Beaverton,Oregon,5080,8.559163096,4,45.487062,-122.8037102,2374.063886
Hartford,Connecticut,5138,73.53300164,33,41.7637111,-72.6850932,2305.821824
Bellingham,Washington,4944,8.602251198,4,48.74908,-122.4781473,2298.933099
Woburn,Massachusetts,4856,53.61117523,25,42.4792618,-71.1522765,2264.45325
Scranton,Pennsylvania,4538,58.60697703,29,41.408969,-75.6624122,2245.500565
Hillsboro,Oregon,4525,6.225678078,3,45.5228939,-122.989827,2180.485375
Medford,Oregon,4145,5.914953288,3,42.3265152,-122.8755949,2102.298935
Tracy,California,5170,12.90513064,5,37.7396513,-121.4252227,2003.079296
Duluth,Minnesota,4764,24.95341395,10,46.7866719,-92.1004852,1909.157604
Paterson,New Jersey,3928,57.90658764,28,40.9167654,-74.171811,1899.334851
Waterbury,Connecticut,3964,60.56139913,29,41.5581525,-73.0514965,1898.172791
Newton,Massachusetts,4062,51.54181394,24,42.3370413,-71.2092214,1891.435177
Danbury,Connecticut,3863,60.10135833,29,41.394817,-73.4540111,1863.967855
Yonkers,New York,4146,65.34406798,29,40.9312099,-73.8987469,1840.014001
Clifton,New Jersey,3818,56.57538384,27,40.8584328,-74.1637553,1822.099878
Bethlehem,Pennsylvania,2947,32.43599747,20,40.6259316,-75.3704579,1817.116926
Hackensack,New Jersey,3818,57.66169732,27,40.8859325,-74.0434736,1787.772556
Allentown,Pennsylvania,2947,33.35746089,20,40.6084305,-75.4901833,1766.921055
Stamford,Connecticut,3933,58.50033558,26,41.0534302,-73.5387341,1747.989973
New Rochelle,New York,3896,61.59870745,27,40.9114882,-73.7823549,1707.69817
Redding,California,3925,4.625325544,2,40.5865396,-122.3916754,1697.177837
Newark,New Jersey,3293,53.69165227,25,40.735657,-74.1723667,1533.292356
Norwalk,Connecticut,3445,58.78084112,26,41.117744,-73.4081575,1523.79582
Omaha,Nebraska,730,0.967878559,2,41.2523634,-95.9979883,1508.453707
Jersey City,New Jersey,3293,55.1928286,25,40.7281575,-74.0776417,1491.58871
Elizabeth,New Jersey,3052,48.84147164,23,40.6639916,-74.2107006,1437.221231
New York,New York,3122,50.08595519,23,40.7127837,-74.0059413,1433.655398
Rochester,New York,2808,25.6434176,13,43.16103,-77.6109219,1423.523205
New Haven,Connecticut,2990,52.80939966,24,41.308274,-72.9278835,1358.849002
Somerville,Massachusetts,2411,30.36172704,17,42.3875968,-71.0994968,1349.956145
Cambridge,Massachusetts,2411,30.40494484,17,42.3736158,-71.1097335,1348.037308
Clovis,California,3140,11.67249187,5,36.8252277,-119.7029194,1345.042701
Bridgeport,Connecticut,2984,53.29698308,24,41.1865478,-73.1951767,1343.715833
Boston,Massachusetts,2411,31.47103947,17,42.3600825,-71.0588801,1302.37198
Fresno,California,3140,12.45817603,5,36.7468422,-119.7725868,1260.216581
Lynn,Massachusetts,2301,31.95272998,17,42.466763,-70.9494938,1224.214645
Hesperia,California,930,3.051778511,4,34.4263886,-117.3008784,1218.961332
Reading,Pennsylvania,2345,29.1986756,15,40.3356483,-75.9268747,1204.677927
San Bernardino,California,930,3.097027341,4,34.1083449,-117.2897652,1201.151811
Quincy,Massachusetts,2411,34.25020469,17,42.2528772,-71.0022705,1196.693578
Kennewick,Washington,2555,6.448961176,3,46.2112458,-119.1372338,1188.563521
Rialto,California,930,3.143067957,4,34.1064001,-117.3703235,1183.556974
Trenton,New Jersey,2664,40.9772496,18,40.2170534,-74.7429384,1170.210311
Fontana,California,930,3.261531765,4,34.0922335,-117.435048,1140.56838
Buffalo,New York,2200,19.53715234,10,42.8864468,-78.8783689,1126.059705
Oakley,California,2782,7.731833746,3,37.9974219,-121.7124536,1079.433453
Rancho Cucamonga,California,930,3.463850836,4,34.1063989,-117.5931084,1073.949248
Syracuse,New York,2148,34.0082259,17,43.0481221,-76.1474244,1073.740221
Farmington Hills,Michigan,1073,6.208404906,6,42.4989936,-83.3677168,1036.981334
Victorville,California,930,3.591318144,4,34.5362184,-117.2927641,1035.831372
Antioch,California,2782,8.187882753,3,38.0049214,-121.805789,1019.311127
Upland,California,930,3.682454348,4,34.09751,-117.6483876,1010.195823
Pontiac,Michigan,1073,6.453297696,6,42.6389216,-83.2910468,997.6294761
Rapid City,South Dakota,1040,2.086679916,2,44.0805434,-103.2310149,996.7987828
Philadelphia,Pennsylvania,2529,38.16433292,15,39.9525839,-75.1652215,993.9909097
Niagara Falls,New York,2160,19.6626466,9,43.0962143,-79.0377388,988.6766719
Westland,Michigan,1073,6.55408642,6,42.324204,-83.400211,982.2879326
Livonia,Michigan,1073,6.576984792,6,42.36837,-83.3527097,978.8680077
Providence,Rhode Island,2262,48.86609168,21,41.8239891,-71.4128343,972.0851079
Camden,New Jersey,2529,39.02713888,15,39.9259463,-75.1196199,972.0159123
Jurupa Valley,California,930,3.852884176,4,33.9971974,-117.4854802,965.510467
Cranston,Rhode Island,2262,49.51414578,21,41.7798226,-71.4372796,959.3622035
Ontario,California,930,3.882784813,4,34.0633443,-117.6508876,958.0752423
Moreno Valley,California,930,3.994920827,4,33.9424658,-117.2296717,931.1824091
Riverside,California,930,4.001337951,4,33.9533487,-117.3961564,929.6890304
Southfield,Michigan,1073,6.959741218,6,42.4733688,-83.2218731,925.034394
Brockton,Massachusetts,1861,30.55879518,15,42.0834335,-71.0183787,913.4849668
Troy,Michigan,1073,7.314550734,6,42.6064095,-83.1497751,880.1634214
Rochester Hills,Michigan,1073,7.360448601,6,42.6583661,-83.1499322,874.6749483
Chino,California,930,4.323242658,4,34.0122346,-117.688944,860.4652327
Pomona,California,930,4.34561556,4,34.055103,-117.7499909,856.0352264
Dearborn,Michigan,1073,7.615666241,6,42.3222599,-83.1763145,845.3626769
Rio Rancho,New Mexico,1340,6.361514614,4,35.2327544,-106.6630437,842.566641
Ann Arbor,Michigan,1173,10.16066911,7,42.2808256,-83.7430378,808.1160712
Albuquerque,New Mexico,1340,6.634025491,4,35.0853336,-106.6055534,807.9558945
Chino Hills,California,930,4.6350034,4,33.9898188,-117.7325848,802.5884079
Sterling Heights,Michigan,1073,8.149301588,6,42.5803122,-83.0302033,790.0063497
Warwick,Rhode Island,1815,41.89149623,18,41.7001009,-71.4161671,779.8718819
Warren,Michigan,1073,8.285768789,6,42.5144566,-83.0146526,776.994889
Corona,California,930,4.822453638,4,33.8752935,-117.5664384,771.3915527
Detroit,Michigan,1073,8.458576921,6,42.331427,-83.0457538,761.120938
Billings,Montana,1784,4.691189936,2,45.7832856,-108.5006904,760.5746194
Perris,California,930,5.12914876,4,33.7825194,-117.2286478,725.266545
Flint,Michigan,1213,13.44317775,8,43.0125274,-83.6874562,721.8531349
Visalia,California,2038,8.496672874,3,36.3302284,-119.2920585,719.5757788
Fond du Lac,Wisconsin,1084,15.44062339,10,43.7730448,-88.4470508,702.0441939
West Covina,California,930,5.353324506,4,34.0686208,-117.9389526,694.8952928
Baldwin Park,California,930,5.431270868,4,34.0852868,-117.9608978,684.9225697
Lansing,Michigan,1439,25.53704412,12,42.732535,-84.5555347,676.1941561
Erie,Pennsylvania,1517,20.7148153,9,42.1292241,-80.085059,659.0934943
Hemet,California,930,5.713825466,4,33.7475203,-116.9719684,651.0524381
Arcadia,California,930,5.769710503,4,34.1397292,-118.0353449,644.7463868
Menifee,California,930,5.804676604,4,33.6971468,-117.185294,640.8625758
Grand Rapids,Michigan,1361,21.24632732,10,42.9633599,-85.6680863,640.5813012
El Monte,California,930,5.925366764,4,34.0686206,-118.0275667,627.8092392
Fall River,Massachusetts,1380,28.9897994,13,41.7014912,-71.1550451,618.8383628
Wyoming,Michigan,1231,18.12450685,9,42.9133602,-85.7053085,611.2718041
Fullerton,California,930,6.246166336,4,33.8703596,-117.9242966,595.5653116
Whittier,California,930,6.308070406,4,33.9791793,-118.032844,589.7207483
Toledo,Ohio,1217,14.57283339,7,41.6639383,-83.555212,584.5808961
Bloomington,Minnesota,696,9.53051443,8,44.840798,-93.2982799,584.2286941
Anaheim,California,930,6.402451941,4,33.8352932,-117.9145036,581.0273992
Orange,California,930,6.413900577,4,33.7877944,-117.8531119,579.9902813
Madison,Wisconsin,1073,22.33314811,12,43.0730517,-89.4012302,576.5420951
Alhambra,California,930,6.517306901,4,34.095287,-118.1270146,570.7879123
Pasadena,California,930,6.519231913,4,34.1477849,-118.1445155,570.6193689
Tustin,California,930,6.578042258,4,33.7458511,-117.826166,565.5178022
Buena Park,California,930,6.653599835,4,33.8675143,-117.9981181,559.0958417
Santa Ana,California,930,6.753538531,4,33.7455731,-117.8678338,550.8223552
Palmdale,California,930,6.807167266,4,34.5794343,-118.1164613,546.4828254
Lake Forest,California,930,6.808234945,4,33.6469661,-117.689218,546.397125
Parma,Ohio,1045,15.34231965,8,41.4047742,-81.7229086,544.898046
Cleveland,Ohio,1045,15.41881381,8,41.49932,-81.6943605,542.1947565
Irvine,California,930,6.885030545,4,33.6839473,-117.7946942,540.3026139
Garden Grove,California,930,6.906782385,4,33.7739053,-117.9414477,538.6010145
Murrieta,California,930,6.941440366,4,33.5539143,-117.2139232,535.9118286
Norwalk,California,930,6.955656576,4,33.9022367,-118.081733,534.8165136
Minneapolis,Minnesota,696,10.43296038,8,44.977753,-93.2650108,533.6931991
Elyria,Ohio,1005,13.41883917,7,41.3683798,-82.1076486,524.2629344
Downey,California,930,7.100155231,4,33.9401088,-118.1331593,523.932207
Mission Viejo,California,930,7.114513027,4,33.6000232,-117.6719953,522.8748596
Bellflower,California,930,7.264470828,4,33.8816818,-118.1170117,512.081346
Westminster,California,930,7.30153097,4,33.7513419,-117.9939921,509.4821915
Glendale,California,930,7.317092255,4,34.1425078,-118.255075,508.398674
St. Paul,Minnesota,741,13.17412131,9,44.9537029,-93.0899578,506.2197199
Las Cruces,New Mexico,1310,5.238961163,2,32.3199396,-106.7636538,500.0991453
Los Angeles,California,930,7.439936503,4,34.0522342,-118.2436849,500.0042673
Temecula,California,930,7.473170404,4,33.4936391,-117.1483648,497.7807007
Lakewood,California,930,7.501028199,4,33.8536269,-118.1339563,495.9320111
Lancaster,California,930,7.510209062,4,34.6867846,-118.1541632,495.3257585
Appleton,Wisconsin,917,14.86845882,8,44.2619309,-88.4153847,493.393437
South Gate,California,930,7.546956948,4,33.954737,-118.2120161,492.9139023
Plymouth,Minnesota,696,11.37896941,8,45.0105194,-93.4555093,489.3237514
Burbank,California,930,7.649473708,4,34.1808392,-118.3089661,486.307966
Costa Mesa,California,930,7.670379343,4,33.6411316,-117.9186689,484.9825326
Brooklyn Park,Minnesota,696,11.69694322,8,45.0941315,-93.3563405,476.021803
Compton,California,930,7.835633985,4,33.8958492,-118.2200712,474.7541816
Newport Beach,California,930,7.865419477,4,33.6189101,-117.9289469,472.956339
Huntington Beach,California,930,7.898957169,4,33.660297,-117.9992265,470.9482429
New Bedford,Massachusetts,1052,22.43339505,10,41.6362152,-70.934205,468.9437323
Green Bay,Wisconsin,1153,25.36283974,10,44.519159,-88.019826,454.6020918
Long Beach,California,930,8.273026557,4,33.7700504,-118.1937395,449.6540625
Inglewood,California,930,8.46188963,4,33.9616801,-118.3531311,439.6181187
Carson,California,930,8.502431684,4,33.8316745,-118.281693,437.5218924
New Berlin,Wisconsin,904,24.98512934,12,42.9764027,-88.1084224,434.1782607
Hawthorne,California,930,8.61428633,4,33.9164032,-118.3525748,431.8407652
Torrance,California,930,8.854907629,4,33.8358492,-118.3406288,420.1060198
Lincoln,Nebraska,730,3.48911196,2,40.8257625,-96.6851982,418.4445832
Milwaukee,Wisconsin,904,26.29275969,12,43.0389025,-87.9064736,412.5850663
Santa Monica,California,930,9.252647284,4,34.0194543,-118.4911912,402.0470992
Indio,California,930,9.332878682,4,33.7205771,-116.2155619,398.590845
Santa Clarita,California,930,9.351752983,4,34.3916641,-118.542586,397.7863837
Rockford,Illinois,892,23.2779473,10,42.2711311,-89.0939952,383.1953
Vista,California,930,9.906233414,4,33.2000368,-117.2425355,375.5211335
Oceanside,California,930,9.970330415,4,33.1958696,-117.3794834,373.106993
Rochester,Minnesota,776,19.17568423,9,44.0121221,-92.4801989,364.2112539
Carlsbad,California,930,10.27937861,4,33.1580933,-117.3505939,361.8895792
San Marcos,California,930,10.41646041,4,33.1433723,-117.1661449,357.1270714
Kalamazoo,Michigan,456,7.733090903,6,42.2917069,-85.5872286,353.8041948
St. Joseph,Missouri,710,4.020049979,2,39.7674578,-94.846681,353.2294393
Escondido,California,930,10.67909979,4,33.1192068,-117.086421,348.3439683
Pittsburgh,Pennsylvania,863,25.87950229,10,40.4406248,-79.9958864,333.4685459
Simi Valley,California,690,4.180660326,2,34.2694474,-118.781482,330.0913952
Thousand Oaks,California,690,4.423232358,2,34.1705609,-118.8375937,311.9890362
Pueblo,Colorado,800,3.008178749,1,38.2544472,-104.6091409,265.9416434
Wheaton,Illinois,159,1.911675879,3,41.8661403,-88.1070127,249.5192858
Oxnard,California,690,5.649254737,2,34.1975048,-119.1770516,244.2800094
Akron,Ohio,362,8.911045626,6,41.0814447,-81.5190053,243.7424396
San Buenaventura (Ventura),California,690,5.820599556,2,34.274646,-119.2290316,237.088978
Lynchburg,Virginia,520,11.12305863,5,37.4137536,-79.1422464,233.7486555
Racine,Wisconsin,534,25.50980678,11,42.7261309,-87.7828523,230.2643862
Fayetteville,North Carolina,270,3.550767399,3,35.0526641,-78.8783585,228.1197018
Kenosha,Wisconsin,502,22.71307201,10,42.5847425,-87.8211854,221.0180991
Roanoke,Virginia,495,9.683194199,4,37.2709704,-79.9414266,204.4779811
Naperville,Illinois,159,2.411828578,3,41.7508391,-88.1535352,197.77525
St. George,Utah,600,3.089071917,1,37.0965278,-113.5684164,194.2330953
El Paso,Texas,560,2.975691848,1,31.7618778,-106.4850217,188.1915294
Aurora,Illinois,159,2.670578408,3,41.7605849,-88.3200715,178.612992
Raleigh,North Carolina,270,4.589118044,3,35.7795897,-78.6381787,176.5045031
Bolingbrook,Illinois,159,2.73453248,3,41.6986416,-88.0683955,174.435668
Cary,North Carolina,270,4.648081727,3,35.79154,-78.7811169,174.2654384
Porterville,California,450,2.654822263,1,36.06523,-119.0167679,169.5028727
Livermore,California,240,1.451209009,1,37.6818745,-121.7680088,165.3793481
Waukegan,Illinois,312,13.76732124,7,42.3636331,-87.8447938,158.636525
Evanston,Illinois,335,14.83302965,7,42.0450722,-87.6876969,158.0931243
Dayton,Ohio,264,3.39282608,2,39.7589478,-84.1916069,155.6224774
Elgin,Illinois,241,7.986273509,5,42.0354084,-88.2825668,150.8838883
Davenport,Iowa,222,4.475106218,3,41.5236437,-90.5776367,148.8232832
Pleasanton,California,240,1.634230265,1,37.6624312,-121.8746789,146.8581296
Westerville,Ohio,224,3.072350238,2,40.1261743,-82.9290696,145.8167088
Cincinnati,Ohio,264,3.661022993,2,39.1031182,-84.5120196,144.2219841
Schaumburg,Illinois,225,7.930595588,5,42.0333607,-88.0834059,141.8556762
Arlington Heights,Illinois,262,11.11318295,6,42.0883603,-87.9806265,141.4536237
Chicago,Illinois,285,12.21292117,6,41.8781136,-87.6297982,140.0156421
Milpitas,California,240,1.720450328,1,37.4323341,-121.8995741,139.4983605
Durham,North Carolina,270,5.879873851,3,35.9940329,-78.898619,137.7580575
San Jose,California,240,1.758403808,1,37.3382082,-121.8863286,136.4874205
Elmhurst,Illinois,225,8.566576719,5,41.8994744,-87.9403418,131.3243361
Fremont,California,240,1.836132232,1,37.5482697,-121.9885719,130.7095403
San Ramon,California,240,1.850329025,1,37.7799273,-121.9780153,129.7066612
Santa Clara,California,240,1.862009276,1,37.3541079,-121.9552356,128.8930206
Cicero,Illinois,235,9.135647076,5,41.8455877,-87.7539448,128.6170525
Columbus,Ohio,224,3.520304602,2,39.9611755,-82.9987942,127.2617147
Fort Wayne,Indiana,354,11.2638496,4,41.079273,-85.1393513,125.7119059
South Bend,Indiana,235,9.427709903,5,41.6763545,-86.2519898,124.6326003
Union City,California,240,1.928450711,1,37.5933918,-122.0438298,124.4522344
Gary,Indiana,285,13.79992171,6,41.5933696,-87.3464271,123.9137465
Joliet,Illinois,159,3.874594285,3,41.525031,-88.0817251,123.1096638
Hammond,Indiana,285,13.93541492,6,41.5833688,-87.5000412,122.7089405
Sunnyvale,California,240,1.98971276,1,37.36883,-122.0363496,120.6204256
Hayward,California,240,1.996998597,1,37.6688205,-122.0807964,120.1803549
Grove City,Ohio,224,3.736662294,2,39.8814519,-83.0929644,119.893093
Mountain View,California,240,2.060895853,1,37.3860517,-122.0838511,116.4542108
Concord,California,240,2.07178678,1,37.9779776,-122.0310733,115.8420366
San Leandro,California,240,2.140044376,1,37.7249296,-122.1560768,112.1472072
Cedar Rapids,Iowa,222,6.249768125,3,41.9778795,-91.6656232,106.5639535
High Point,North Carolina,297,11.15219037,4,35.9556923,-80.0053176,106.5261585
Iowa City,Iowa,222,6.262432911,3,41.6611277,-91.5301683,106.3484447
Redwood City,California,240,2.284983704,1,37.4852152,-122.2363548,105.0335718
Greensboro,North Carolina,297,11.32343349,4,36.0726354,-79.7919754,104.9151745
Alameda,California,240,2.30085079,1,37.7652065,-122.2416355,104.3092412
Oakland,California,240,2.366059739,1,37.8043637,-122.2711137,101.4344634
Greenville,North Carolina,220,4.3718898,2,35.612661,-77.3663538,100.642976
Fairfield,California,240,2.386696105,1,38.2493581,-122.0399663,100.5574189
Baltimore,Maryland,223,4.438669808,2,39.2903848,-76.6121893,100.4805537
Berkeley,California,240,2.39999597,1,37.8715926,-122.272747,100.0001679
Salinas,California,240,2.415427207,1,36.6777372,-121.6555013,99.36130524
San Mateo,California,240,2.426704043,1,37.5629917,-122.3255254,98.89957563
Vacaville,California,240,2.467107949,1,38.3565773,-121.9877444,97.27989408
Louisville/Jefferson County,Kentucky,185,3.848783596,2,38.2526647,-85.7584557,96.13426964
Vallejo,California,240,2.546904401,1,38.1040864,-122.2566367,94.23204103
Richmond,California,240,2.563886737,1,37.9357576,-122.3477486,93.60787921
San Francisco,California,240,2.613124298,1,37.7749295,-122.4194155,91.8440811
Washington,District of Columbia,248,8.273433273,3,38.9071923,-77.0368707,89.92639156
Daly City,California,240,2.683290576,1,37.6879241,-122.4702079,89.442419
Bloomington,Indiana,185,4.25257303,2,39.165325,-86.5263857,87.00614837
Alexandria,Virginia,248,8.65758832,3,38.8048355,-77.0469214,85.93617212
Napa,California,240,2.802319726,1,38.2975381,-122.286865,85.64333246
Ames,Iowa,35,0.414844778,1,42.0307812,-93.6319131,84.36890574
San Rafael,California,240,2.895875386,1,37.9735346,-122.5310874,82.87649432
Wilmington,North Carolina,220,5.620716426,2,34.2257255,-77.9447102,78.28183575
El Cajon,California,240,6.444142387,2,32.7947731,-116.9625269,74.48624986
Asheville,North Carolina,100,5.729648135,4,35.5950581,-82.5514869,69.81231492
Indianapolis,Indiana,185,5.450400035,2,39.768403,-86.158068,67.88492545
Richmond,Virginia,199,5.90566327,2,37.5407246,-77.4360481,67.39293824
Fishers,Indiana,185,5.981200708,2,39.9567548,-86.01335,61.8604889
Carmel,Indiana,185,6.152875929,2,39.978371,-86.1180435,60.1344809
Gastonia,North Carolina,142,7.437402608,3,35.262082,-81.1873005,57.27806097
Lexington-Fayette,Kentucky,120,2.410598184,1,38.0405837,-84.5037164,49.78017522
O'Fallon,Missouri,30,0.69594281,1,38.8106075,-90.6998477,43.10699034
St. Louis,Missouri,30,0.794347819,1,38.6270025,-90.1994042,37.76683118
Knoxville,Tennessee,73,5.808194187,3,35.9606384,-83.9207392,37.70535091
Kansas City,Kansas,30,0.811448884,1,39.114053,-94.6274636,36.9709055
Concord,North Carolina,77,4.252768331,2,35.4087517,-80.579511,36.21170682
Charlotte,North Carolina,77,4.435140054,2,35.2270869,-80.8431267,34.72269153
Kansas City,Missouri,30,0.887716099,1,39.0997265,-94.5785667,33.79458819
Des Moines,Iowa,35,1.114887303,1,41.6005448,-93.6091064,31.39330756
Winston-Salem,North Carolina,77,5.290348088,2,36.0998596,-80.244216,29.10961574
Overland Park,Kansas,30,1.032786877,1,38.9822282,-94.6707917,29.04761929
Evansville,Indiana,65,2.321900861,1,37.9715592,-87.5710898,27.99430462
Independence,Missouri,30,1.098069751,1,39.0911161,-94.4155068,27.32066882
Lawrence,Kansas,30,1.133181085,1,38.9716689,-95.2352501,26.47414469
Olathe,Kansas,30,1.18584607,1,38.8813958,-94.8191285,25.29839307
Fargo,North Dakota,65,6.14373989,2,46.8771863,-96.7898034,21.15974998
Lee's Summit,Missouri,30,1.427414056,1,38.9108408,-94.3821724,21.01702717
Topeka,Kansas,30,1.568699284,1,39.0558235,-95.6890185,19.12412424
Sioux City,Iowa,50,2.677101325,1,42.4999942,-96.4003069,18.67691728
Columbia,South Carolina,50,3.073228754,1,34.0007104,-81.0348144,16.2695341
Peoria,Illinois,28,2.51438829,1,40.6936488,-89.5889864,11.13590932
Columbia,Missouri,30,3.122063694,1,38.9517053,-92.3340724,9.609028817
Athens-Clarke County,Georgia,8,2.620932655,1,33.9519347,-83.357567,3.052348554
Johns Creek,Georgia,8,3.136506909,1,34.0289259,-84.198579,2.550608123
East Lansing,Michigan,0,0,0,0,0,1
Coeur d'Alene,Idaho,0,0,0,0,0,1
Beavercreek,Ohio,0,0,0,0,0,1
Minot,North Dakota,0,0,0,0,0,1
Harrisburg,Pennsylvania,0,0,0,0,0,1
Methuen,Massachusetts,0,0,0,0,0,1
Dover,Delaware,0,0,0,0,0,1
Covina,California,0,0,0,0,0,1
Glenview,Illinois,0,0,0,0,0,1
Logan,Utah,0,0,0,0,0,1
St. Louis Park,Minnesota,0,0,0,0,0,1
Dunwoody,Georgia,0,0,0,0,0,1
Cuyahoga Falls,Ohio,0,0,0,0,0,1
Wylie,Texas,0,0,0,0,0,1
Keizer,Oregon,0,0,0,0,0,1
Columbus,Indiana,0,0,0,0,0,1
Cypress,California,0,0,0,0,0,1
Maricopa,Arizona,0,0,0,0,0,1
Lawrence,Indiana,0,0,0,0,0,1
Wauwatosa,Wisconsin,0,0,0,0,0,1
La Crosse,Wisconsin,0,0,0,0,0,1
Newark,Ohio,0,0,0,0,0,1
Chesterfield,Missouri,0,0,0,0,0,1
Braintree Town,Massachusetts,0,0,0,0,0,1
Bedford,Texas,0,0,0,0,0,1
Draper,Utah,0,0,0,0,0,1
Alexandria,Louisiana,0,0,0,0,0,1
Binghamton,New York,0,0,0,0,0,1
Apopka,Florida,0,0,0,0,0,1
Stillwater,Oklahoma,0,0,0,0,0,1
Middletown,Connecticut,0,0,0,0,0,1
Hattiesburg,Mississippi,0,0,0,0,0,1
Roswell,New Mexico,0,0,0,0,0,1
Summerville,South Carolina,0,0,0,0,0,1
Mentor,Ohio,0,0,0,0,0,1
Palm Springs,California,0,0,0,0,0,1
Roseville,Michigan,0,0,0,0,0,1
Bonita Springs,Florida,0,0,0,0,0,1
Mansfield,Ohio,0,0,0,0,0,1
Collierville,Tennessee,0,0,0,0,0,1
East Providence,Rhode Island,0,0,0,0,0,1
Mishawaka,Indiana,0,0,0,0,0,1
Texas City,Texas,0,0,0,0,0,1
Salina,Kansas,0,0,0,0,0,1
Portage,Michigan,0,0,0,0,0,1
San Jacinto,California,0,0,0,0,0,1
Madison,Alabama,0,0,0,0,0,1
Jeffersonville,Indiana,0,0,0,0,0,1
Sheboygan,Wisconsin,0,0,0,0,0,1
Warren,Ohio,0,0,0,0,0,1
Middletown,Ohio,0,0,0,0,0,1
Cedar Hill,Texas,0,0,0,0,0,1
Azusa,California,0,0,0,0,0,1
Ceres,California,0,0,0,0,0,1
Huntington,West Virginia,0,0,0,0,0,1
Murray,Utah,0,0,0,0,0,1
Twin Falls,Idaho,0,0,0,0,0,1
Davie,Florida,0,0,0,26.0764783,-80.2521157,1
Lancaster,Ohio,0,0,0,0,0,1
San Luis Obispo,California,0,0,0,0,0,1
Rancho Santa Margarita,California,0,0,0,0,0,1
Lincoln Park,Michigan,0,0,0,0,0,1
Doral,Florida,0,0,0,0,0,1
Ankeny,Iowa,0,0,0,0,0,1
Euless,Texas,0,0,0,0,0,1
Blue Springs,Missouri,0,0,0,0,0,1
Cathedral City,California,0,0,0,0,0,1
Hoboken,New Jersey,0,0,0,0,0,1
Watsonville,California,0,0,0,0,0,1
Lake Havasu City,Arizona,0,0,0,0,0,1
Yucaipa,California,0,0,0,0,0,1
Pensacola,Florida,0,0,0,0,0,1
Kingsport,Tennessee,0,0,0,0,0,1
Richland,Washington,0,0,0,0,0,1
Bradenton,Florida,0,0,0,0,0,1
Delano,California,0,0,0,0,0,1
West New York,New Jersey,0,0,0,0,0,1
Gilroy,California,0,0,0,0,0,1
Harrisonburg,Virginia,0,0,0,0,0,1
Bellevue,Nebraska,0,0,0,0,0,1
Lincoln,California,0,0,0,0,0,1
Atlantic City,New Jersey,0,0,0,0,0,1
Euclid,Ohio,0,0,0,0,0,1
Highland,California,0,0,0,0,0,1
Perth Amboy,New Jersey,0,0,0,0,0,1
Sarasota,Florida,0,0,0,0,0,1
Decatur,Alabama,0,0,0,0,0,1
Hempstead,New York,0,0,0,0,0,1
Anderson,Indiana,0,0,0,0,0,1
Paramount,California,0,0,0,0,0,1
Shoreline,Washington,0,0,0,0,0,1
Hendersonville,Tennessee,0,0,0,0,0,1
Hanford,California,0,0,0,0,0,1
Novato,California,0,0,0,0,0,1
Smyrna,Georgia,0,0,0,0,0,1
Corvallis,Oregon,0,0,0,0,0,1
Mount Prospect,Illinois,0,0,0,0,0,1
Rosemead,California,0,0,0,0,0,1
West Haven,Connecticut,0,0,0,0,0,1
Dublin,California,0,0,0,0,0,1
Cerritos,California,0,0,0,0,0,1
Revere,Massachusetts,0,0,0,0,0,1
Peabody,Massachusetts,0,0,0,0,0,1
Marlborough,Massachusetts,0,0,0,0,0,1
Pflugerville,Texas,0,0,0,0,0,1
Greenwood,Indiana,0,0,0,0,0,1
Pocatello,Idaho,0,0,0,0,0,1
Hoffman Estates,Illinois,0,0,0,0,0,1
Addison,Illinois,0,0,0,0,0,1
Wilson,North Carolina,0,0,0,0,0,1
Plainfield,New Jersey,0,0,0,0,0,1
Pinellas Park,Florida,0,0,0,0,0,1
Lakewood,Ohio,0,0,0,0,0,1
Grapevine,Texas,0,0,0,0,0,1
Tigard,Oregon,0,0,0,0,0,1
Kentwood,Michigan,0,0,0,0,0,1
Apple Valley,Minnesota,0,0,0,0,0,1
Charleston,West Virginia,0,0,0,0,0,1
Aliso Viejo,California,0,0,0,0,0,1
Caldwell,Idaho,0,0,0,0,0,1
Burien,Washington,0,0,0,0,0,1
Port Arthur,Texas,0,0,0,0,0,1
Troy,New York,0,0,0,0,0,1
Parker,Colorado,0,0,0,0,0,1
Poway,California,0,0,0,0,0,1
Commerce City,Colorado,0,0,0,0,0,1
Downers Grove,Illinois,0,0,0,0,0,1
Galveston,Texas,0,0,0,0,0,1
Monroe,Louisiana,0,0,0,0,0,1
Edina,Minnesota,0,0,0,0,0,1
Leesburg,Virginia,0,0,0,0,0,1
La Mirada,California,0,0,0,0,0,1
Lenexa,Kansas,0,0,0,0,0,1
West Sacramento,California,0,0,0,0,0,1
Florissant,Missouri,0,0,0,0,0,1
Brookhaven,Georgia,0,0,0,0,0,1
Oak Park,Illinois,0,0,0,0,0,1
Albany,Oregon,0,0,0,0,0,1
DeSoto,Texas,0,0,0,0,0,1
Palm Beach Gardens,Florida,0,0,0,0,0,1
Milford,Connecticut,0,0,0,0,0,1
Colton,California,0,0,0,0,0,1
Placentia,California,0,0,0,0,0,1
Saginaw,Michigan,0,0,0,0,0,1
Altoona,Pennsylvania,0,0,0,0,0,1
Battle Creek,Michigan,0,0,0,0,0,1
Grand Island,Nebraska,0,0,0,0,0,1
Huntersville,North Carolina,0,0,0,0,0,1
Minnetonka,Minnesota,0,0,0,0,0,1
Casa Grande,Arizona,0,0,0,0,0,1
Glendora,California,0,0,0,0,0,1
Elkhart,Indiana,0,0,0,0,0,1
Enid,Oklahoma,0,0,0,0,0,1
Joplin,Missouri,0,0,0,0,0,1
Sammamish,Washington,0,0,0,0,0,1
Southaven,Mississippi,0,0,0,0,0,1
Coral Gables,Florida,0,0,0,0,0,1
Palm Desert,California,0,0,0,0,0,1
Charlottesville,Virginia,0,0,0,0,0,1
Martinez,California,0,0,0,0,0,1
Lacey,Washington,0,0,0,0,0,1
Burleson,Texas,0,0,0,0,0,1
Burlington,North Carolina,0,0,0,0,0,1
Shakopee,Minnesota,0,0,0,0,0,1
Hickory,North Carolina,0,0,0,0,0,1
Biloxi,Mississippi,0,0,0,0,0,1
Plainfield,Illinois,0,0,0,0,0,1
Buffalo Grove,Illinois,0,0,0,0,0,1
Bozeman,Montana,0,0,0,0,0,1
Duncanville,Texas,0,0,0,0,0,1
Linden,New Jersey,0,0,0,0,0,1
Calexico,California,0,0,0,0,0,1
Moorhead,Minnesota,0,0,0,0,0,1
Clovis,New Mexico,0,0,0,0,0,1
Marana,Arizona,0,0,0,0,0,1
Hutchinson,Kansas,0,0,0,0,0,1
Bartlett,Illinois,0,0,0,0,0,1
Kearny,New Jersey,0,0,0,0,0,1
Midland,Michigan,0,0,0,0,0,1
Pine Bluff,Arkansas,0,0,0,0,0,1
Bullhead City,Arizona,0,0,0,0,0,1
Annapolis,Maryland,0,0,0,0,0,1
Chelsea,Massachusetts,0,0,0,0,0,1
Hagerstown,Maryland,0,0,0,0,0,1
Culver City,California,0,0,0,0,0,1
Apex,North Carolina,0,0,0,0,0,1
Ormond Beach,Florida,0,0,0,0,0,1
Hallandale Beach,Florida,0,0,0,0,0,1
Morgan Hill,California,0,0,0,0,0,1
Urbana,Illinois,0,0,0,0,0,1
Pacifica,California,0,0,0,0,0,1
Puyallup,Washington,0,0,0,0,0,1
Oro Valley,Arizona,0,0,0,0,0,1
Greenacres,Florida,0,0,0,0,0,1
Cape Girardeau,Missouri,0,0,0,0,0,1
Germantown,Tennessee,0,0,0,0,0,1
Kettering,Ohio,0,0,0,0,0,1
Wausau,Wisconsin,0,0,0,0,0,1
Sherman,Texas,0,0,0,0,0,1
La Quinta,California,0,0,0,0,0,1
Bentonville,Arkansas,0,0,0,0,0,1
Westfield,Massachusetts,0,0,0,0,0,1
Carol Stream,Illinois,0,0,0,0,0,1
Beverly,Massachusetts,0,0,0,0,0,1
State College,Pennsylvania,0,0,0,0,0,1
Goose Creek,South Carolina,0,0,0,0,0,1
Covington,Kentucky,0,0,0,0,0,1
Sumter,South Carolina,0,0,0,0,0,1
Leominster,Massachusetts,0,0,0,0,0,1
Mankato,Minnesota,0,0,0,0,0,1
Huntsville,Texas,0,0,0,0,0,1
Edmonds,Washington,0,0,0,0,0,1
Fitchburg,Massachusetts,0,0,0,0,0,1
Crystal Lake,Illinois,0,0,0,0,0,1
San Gabriel,California,0,0,0,0,0,1
Cedar Falls,Iowa,0,0,0,0,0,1
Quincy,Illinois,0,0,0,0,0,1
Riverton,Utah,0,0,0,0,0,1
La Puente,California,0,0,0,0,0,1
Coppell,Texas,0,0,0,0,0,1
Streamwood,Illinois,0,0,0,0,0,1
Florence,Alabama,0,0,0,0,0,1
Maplewood,Minnesota,0,0,0,0,0,1
Findlay,Ohio,0,0,0,0,0,1
Brea,California,0,0,0,0,0,1
Texarkana,Texas,0,0,0,0,0,1
Wilkes-Barre,Pennsylvania,0,0,0,0,0,1
The Colony,Texas,0,0,0,0,0,1
Shelton,Connecticut,0,0,0,0,0,1
Normal,Illinois,0,0,0,0,0,1
Campbell,California,0,0,0,0,0,1
Hilton Head Island,South Carolina,0,0,0,0,0,1
Meridian,Mississippi,0,0,0,0,0,1
Prescott Valley,Arizona,0,0,0,0,0,1
Ocoee,Florida,0,0,0,0,0,1
Brentwood,Tennessee,0,0,0,0,0,1
Holyoke,Massachusetts,0,0,0,0,0,1
Norwich,Connecticut,0,0,0,0,0,1
Woonsocket,Rhode Island,0,0,0,0,0,1
Prescott,Arizona,0,0,0,0,0,1
Burlington,Vermont,0,0,0,0,0,1
Winter Garden,Florida,0,0,0,0,0,1
Hurst,Texas,0,0,0,0,0,1
North Lauderdale,Florida,0,0,0,0,0,1
Haltom City,Texas,0,0,0,0,0,1
Danville,California,0,0,0,0,0,1
Manassas,Virginia,0,0,0,0,0,1
Romeoville,Illinois,0,0,0,0,0,1
Strongsville,Ohio,0,0,0,0,0,1
Kannapolis,North Carolina,0,0,0,0,0,1
Oakland Park,Florida,0,0,0,0,0,1
Aventura,Florida,0,0,0,0,0,1
El Centro,California,0,0,0,0,0,1
Pittsfield,Massachusetts,0,0,0,0,0,1
Spartanburg,South Carolina,0,0,0,0,0,1
Spanish Fork,Utah,0,0,0,0,0,1
North Miami Beach,Florida,0,0,0,0,0,1
Fort Pierce,Florida,0,0,0,0,0,1
Phenix City,Alabama,0,0,0,0,0,1
Freeport,New York,0,0,0,0,0,1
Keller,Texas,0,0,0,0,0,1
Attleboro,Massachusetts,0,0,0,0,0,1
Blacksburg,Virginia,0,0,0,0,0,1
Titusville,Florida,0,0,0,0,0,1
Smyrna,Tennessee,0,0,0,0,0,1
Sayreville,New Jersey,0,0,0,0,0,1
Muskegon,Michigan,0,0,0,0,0,1
Sierra Vista,Arizona,0,0,0,0,0,1
Lombard,Illinois,0,0,0,0,0,1
Monrovia,California,0,0,0,0,0,1
Cleveland Heights,Ohio,0,0,0,0,0,1
Barnstable Town,Massachusetts,0,0,0,0,0,1
Lompoc,California,0,0,0,0,0,1
Delaware,Ohio,0,0,0,0,0,1
Farmington,New Mexico,0,0,0,0,0,1
Cutler Bay,Florida,0,0,0,0,0,1
Everett,Massachusetts,0,0,0,0,0,1
Dublin,Ohio,0,0,0,0,0,1
Coachella,California,0,0,0,0,0,1
DeKalb,Illinois,0,0,0,0,0,1
Peachtree Corners,Georgia,0,0,0,33.9698929,-84.2214551,1
Weslaco,Texas,0,0,0,0,0,1
Altamonte Springs,Florida,0,0,0,0,0,1
Panama City,Florida,0,0,0,0,0,1
Huber Heights,Ohio,0,0,0,0,0,1
Friendswood,Texas,0,0,0,0,0,1
Lima,Ohio,0,0,0,0,0,1
Newark,California,0,0,0,0,0,1
Carpentersville,Illinois,0,0,0,0,0,1
Lancaster,Texas,0,0,0,0,0,1
Danville,Virginia,0,0,0,0,0,1
Roy,Utah,0,0,0,0,0,1
Concord,New Hampshire,0,0,0,0,0,1
Montclair,California,0,0,0,0,0,1
Hanover Park,Illinois,0,0,0,0,0,1
Bremerton,Washington,0,0,0,0,0,1
Northglenn,Colorado,0,0,0,0,0,1
Muskogee,Oklahoma,0,0,0,0,0,1
Rock Island,Illinois,0,0,0,0,0,1
Beaumont,California,0,0,0,0,0,1
Urbandale,Iowa,0,0,0,0,0,1
Rohnert Park,California,0,0,0,0,0,1
Belleville,Illinois,0,0,0,0,0,1
Moline,Illinois,0,0,0,0,0,1
Rancho Palos Verdes,California,0,0,0,0,0,1
San Bruno,California,0,0,0,0,0,1
Cleveland,Tennessee,0,0,0,0,0,1
Valley Stream,New York,0,0,0,0,0,1
York,Pennsylvania,0,0,0,0,0,1
Stanton,California,0,0,0,0,0,1
Park Ridge,Illinois,0,0,0,0,0,1
Bell Gardens,California,0,0,0,0,0,1
Salem,Massachusetts,0,0,0,0,0,1
Florence,South Carolina,0,0,0,0,0,1
Apache Junction,Arizona,0,0,0,0,0,1
St. Cloud,Florida,0,0,0,0,0,1
Brookfield,Wisconsin,0,0,0,0,0,1
Lake Oswego,Oregon,0,0,0,0,0,1
Wheeling,Illinois,0,0,0,0,0,1
Oviedo,Florida,0,0,0,0,0,1
Fairfield,Ohio,0,0,0,0,0,1
Jefferson City,Missouri,0,0,0,0,0,1
Weymouth Town,Massachusetts,0,0,0,0,0,1
Union City,New Jersey,0,0,0,0,0,1
Castle Rock,Colorado,0,0,0,0,0,1
Allen,Texas,0,0,0,33.1031744,-96.6705503,1
Sandy Springs,Georgia,0,0,0,33.9304352,-84.3733147,1
Tyler,Texas,0,0,0,32.3512601,-95.3010624,1
San Angelo,Texas,0,0,0,31.4637723,-100.4370375,1
Carson City,Nevada,0,0,0,0,0,1
Camarillo,California,0,0,0,0,0,1
Lawton,Oklahoma,0,0,0,34.6035669,-98.3959291,1
Springfield,Illinois,0,0,0,39.7817213,-89.6501481,1
Beaumont,Texas,0,0,0,30.080174,-94.1265562,1
Roswell,Georgia,0,0,0,34.0232431,-84.3615555,1
Surprise,Arizona,0,0,0,33.6292337,-112.3679279,1
Yuma,Arizona,0,0,0,32.6926512,-114.6276916,1
Miami Beach,Florida,0,0,0,25.790654,-80.1300455,1
Plantation,Florida,0,0,0,26.1275862,-80.2331036,1
Boca Raton,Florida,0,0,0,26.3683064,-80.1289321,1
Sunrise,Florida,0,0,0,26.1669711,-80.256595,1
Santa Barbara,California,0,0,0,34.4208305,-119.6981901,1
Edmond,Oklahoma,0,0,0,35.6528323,-97.4780954,1
Fort Smith,Arkansas,0,0,0,35.3859242,-94.3985475,1
Lakeland,Florida,0,0,0,28.0394654,-81.9498042,1
Lewisville,Texas,0,0,0,33.046233,-96.994174,1
Santa Maria,California,0,0,0,34.9530337,-120.4357191,1
Pearland,Texas,0,0,0,29.5635666,-95.2860474,1
Abilene,Texas,0,0,0,32.4487364,-99.7331439,1
Murfreesboro,Tennessee,0,0,0,35.8456213,-86.39027,1
Meriden,Connecticut,0,0,0,0,0,1
Round Rock,Texas,0,0,0,30.5082551,-97.678896,1
Plano,Texas,0,0,0,33.0198431,-96.6988856,1
Loveland,Colorado,0,0,0,0,0,1
Odessa,Texas,0,0,0,31.8456816,-102.3676431,1
Miami Gardens,Florida,0,0,0,25.9420377,-80.2456045,1
Clearwater,Florida,0,0,0,27.9658533,-82.8001026,1
Richardson,Texas,0,0,0,32.9483335,-96.7298519,1
North Charleston,South Carolina,0,0,0,32.8546197,-79.9748103,1
Pompano Beach,Florida,0,0,0,26.2378597,-80.1247667,1
Palm Bay,Florida,0,0,0,28.0344621,-80.5886646,1
Wichita Falls,Texas,0,0,0,33.9137085,-98.4933873,1
Broken Arrow,Oklahoma,0,0,0,36.060949,-95.7974526,1
West Palm Beach,Florida,0,0,0,26.7153424,-80.0533746,1
College Station,Texas,0,0,0,30.627977,-96.3344068,1
Deltona,Florida,0,0,0,28.9005446,-81.2636738,1
Suffolk,Virginia,0,0,0,36.7282054,-76.5835621,1
Sugar Land,Texas,0,0,0,29.6196787,-95.6349463,1
Decatur,Illinois,0,0,0,39.8403147,-88.9548001,1
Boynton Beach,Florida,0,0,0,26.5317866,-80.0905465,1
New Britain,Connecticut,0,0,0,0,0,1
Norman,Oklahoma,0,0,0,35.2225668,-97.4394777,1
Canton,Ohio,0,0,0,0,0,1
Layton,Utah,0,0,0,0,0,1
Jonesboro,Arkansas,0,0,0,0,0,1
Longview,Texas,0,0,0,32.5007037,-94.7404891,1
Turlock,California,0,0,0,0,0,1
Wilmington,Delaware,0,0,0,0,0,1
Gulfport,Mississippi,0,0,0,0,0,1
Missouri City,Texas,0,0,0,0,0,1
Apple Valley,California,0,0,0,0,0,1
Passaic,New Jersey,0,0,0,0,0,1
Pawtucket,Rhode Island,0,0,0,0,0,1
Waukesha,Wisconsin,0,0,0,0,0,1
Fort Myers,Florida,0,0,0,0,0,1
Mission,Texas,0,0,0,26.2159066,-98.3252932,1
Temple,Texas,0,0,0,0,0,1
Warner Robins,Georgia,0,0,0,32.6130007,-83.624201,1
Lake Charles,Louisiana,0,0,0,30.2265949,-93.2173758,1
Champaign,Illinois,0,0,0,40.1164204,-88.2433829,1
Pharr,Texas,0,0,0,26.1947962,-98.1836216,1
Hoover,Alabama,0,0,0,33.4053867,-86.8113781,1
Bryan,Texas,0,0,0,30.6743643,-96.3699632,1
Fayetteville,Arkansas,0,0,0,36.0625795,-94.1574263,1
Honolulu,Hawaii,0,0,0,21.3069444,-157.8583333,1
Mount Pleasant,South Carolina,0,0,0,32.8323225,-79.8284258,1
Lynwood,California,0,0,0,0,0,1
Palm Coast,Florida,0,0,0,29.5844524,-81.2078699,1
Avondale,Arizona,0,0,0,33.4355977,-112.3496021,1
Largo,Florida,0,0,0,27.9094665,-82.7873244,1
Deerfield Beach,Florida,0,0,0,26.3184123,-80.0997657,1
Bloomington,Illinois,0,0,0,40.4842027,-88.9936873,1
Melbourne,Florida,0,0,0,28.0836269,-80.6081089,1
Springdale,Arkansas,0,0,0,36.1867442,-94.1288141,1
Tampa,Florida,0,0,0,27.950575,-82.4571776,1
Baytown,Texas,0,0,0,29.7355047,-94.9774274,1
Albany,Georgia,0,0,0,31.5785074,-84.155741,1
Goodyear,Arizona,0,0,0,33.4353394,-112.3576567,1
Lafayette,Louisiana,0,0,0,30.2240897,-92.0198427,1
Coral Springs,Florida,0,0,0,26.271192,-80.2706044,1
Chicopee,Massachusetts,0,0,0,0,0,1
Laredo,Texas,0,0,0,27.5305671,-99.4803241,1
League City,Texas,0,0,0,29.5074538,-95.0949303,1
Chula Vista,California,0,0,0,32.6400541,-117.0841955,1
Auburn,Alabama,0,0,0,0,0,1
San Antonio,Texas,0,0,0,29.4241219,-98.4936282,1
Phoenix,Arizona,0,0,0,33.4483771,-112.0740373,1
Chandler,Arizona,0,0,0,33.3061605,-111.8412502,1
St. Petersburg,Florida,0,0,0,27.7518284,-82.6267345,1
Norfolk,Virginia,0,0,0,36.8507689,-76.2858726,1
Midland,Texas,0,0,0,31.9973456,-102.0779146,1
Lubbock,Texas,0,0,0,33.5778631,-101.8551665,1
Gilbert,Arizona,0,0,0,33.3528264,-111.789027,1
Glendale,Arizona,0,0,0,33.5386523,-112.1859866,1
Hialeah,Florida,0,0,0,25.8575963,-80.2781057,1
Garland,Texas,0,0,0,32.912624,-96.6388833,1
Chesapeake,Virginia,0,0,0,36.7682088,-76.2874927,1
Irving,Texas,0,0,0,32.8140177,-96.9488945,1
Scottsdale,Arizona,0,0,0,33.4941704,-111.9260519,1
Bakersfield,California,0,0,0,35.3732921,-119.0187125,1
Arlington,Texas,0,0,0,32.735687,-97.1080656,1
New Orleans,Louisiana,0,0,0,29.9510658,-90.0715323,1
Wichita,Kansas,0,0,0,37.6871761,-97.330053,1
Orlando,Florida,0,0,0,28.5383355,-81.3792365,1
Dallas,Texas,0,0,0,32.7766642,-96.7969879,1
Sioux Falls,South Dakota,0,0,0,43.5445959,-96.7311034,1
McKinney,Texas,0,0,0,33.1972465,-96.6397822,1
San Diego,California,0,0,0,32.715738,-117.1610838,1
Austin,Texas,0,0,0,30.267153,-97.7430608,1
Jacksonville,Florida,0,0,0,30.3321838,-81.655651,1
Fort Worth,Texas,0,0,0,32.7554883,-97.3307658,1
Memphis,Tennessee,0,0,0,35.1495343,-90.0489801,1
Nashville-Davidson,Tennessee,0,0,0,36.1626638,-86.7816016,1
Oklahoma City,Oklahoma,0,0,0,35.4675602,-97.5164276,1
Tucson,Arizona,0,0,0,32.2217429,-110.926479,1
Mesa,Arizona,0,0,0,33.4151843,-111.8314724,1
Atlanta,Georgia,0,0,0,33.7489954,-84.3879824,1
Virginia Beach,Virginia,0,0,0,36.8529263,-75.977985,1
Miami,Florida,0,0,0,25.7616798,-80.1917902,1
Tulsa,Oklahoma,0,0,0,36.1539816,-95.992775,1
Baton Rouge,Louisiana,0,0,0,30.4582829,-91.1403196,1
Birmingham,Alabama,0,0,0,33.5206608,-86.80249,1
Columbus,Georgia,0,0,0,32.4609764,-84.9877094,1
Springfield,Missouri,0,0,0,37.2089572,-93.2922989,1
Houston,Texas,0,0,0,29.7604267,-95.3698028,1
Pasadena,Texas,0,0,0,29.6910625,-95.2091006,1
Macon-Bibb County,Georgia,0,0,0,32.8406946,-83.6324022,1
Hollywood,Florida,0,0,0,26.0112014,-80.1494901,1
Little Rock,Arkansas,0,0,0,34.7464809,-92.2895948,1
Waco,Texas,0,0,0,31.549333,-97.1466695,1
Frisco,Texas,0,0,0,33.1506744,-96.8236116,1
Mesquite,Texas,0,0,0,32.7667955,-96.5991593,1
Savannah,Georgia,0,0,0,32.0835407,-81.0998342,1
McAllen,Texas,0,0,0,26.2034071,-98.2300124,1
Killeen,Texas,0,0,0,31.1171194,-97.7277959,1
Hampton,Virginia,0,0,0,37.0298687,-76.3452218,1
Miramar,Florida,0,0,0,25.9860762,-80.3035602,1
Charleston,South Carolina,0,0,0,32.7764749,-79.9310512,1
Shreveport,Louisiana,0,0,0,32.5251516,-93.7501789,1
Gainesville,Florida,0,0,0,29.6516344,-82.3248262,1
Carrollton,Texas,0,0,0,32.9756415,-96.8899636,1
Denton,Texas,0,0,0,33.2148412,-97.1330683,1
Pembroke Pines,Florida,0,0,0,26.007765,-80.2962555,1
Peoria,Arizona,0,0,0,33.5805955,-112.2373779,1
Montgomery,Alabama,0,0,0,32.3668052,-86.2999689,1
Amarillo,Texas,0,0,0,35.2219971,-101.8312969,1
Augusta-Richmond County,Georgia,0,0,0,33.4734978,-82.0105148,1
Springfield,Ohio,0,0,0,0,0,1
Fort Lauderdale,Florida,0,0,0,26.1224386,-80.1373174,1
Clarksville,Tennessee,0,0,0,36.5297706,-87.3594528,1
Mobile,Alabama,0,0,0,30.6953657,-88.0398912,1
Huntsville,Alabama,0,0,0,34.7303688,-86.5861037,1
Tallahassee,Florida,0,0,0,30.4382559,-84.2807329,1
Grand Prairie,Texas,0,0,0,32.7459645,-96.9977846,1
Brownsville,Texas,0,0,0,25.9017472,-97.4974838,1
Newport News,Virginia,0,0,0,37.0870821,-76.4730122,1
Santa Rosa,California,0,0,0,38.440429,-122.7140548,1
Redlands,California,0,0,0,0,0,1
Port St. Lucie,Florida,0,0,0,27.2730492,-80.3582261,1
Chattanooga,Tennessee,0,0,0,35.0456297,-85.3096801,1
Tempe,Arizona,0,0,0,33.4255104,-111.9400054,1
Jackson,Mississippi,0,0,0,32.2987573,-90.1848103,1
Cape Coral,Florida,0,0,0,26.5628537,-81.9495331,1
Lafayette,Indiana,0,0,0,0,0,1
Lauderhill,Florida,0,0,0,0,0,1
Corpus Christi,Texas,0,0,0,27.8005828,-97.396381,1
Springfield,Oregon,0,0,0,0,0,1
Rockwall,Texas,0,0,0,0,0,1
North Port,Florida,0,0,0,0,0,1
Casper,Wyoming,0,0,0,0,0,1
St. Clair Shores,Michigan,0,0,0,0,0,1
Lake Elsinore,California,0,0,0,0,0,1
Marietta,Georgia,0,0,0,0,0,1
Petaluma,California,0,0,0,0,0,1
Franklin,Tennessee,0,0,0,0,0,1
Lakeville,Minnesota,0,0,0,0,0,1
Lakewood,Washington,0,0,0,0,0,1
Buckeye,Arizona,0,0,0,0,0,1
Chapel Hill,North Carolina,0,0,0,0,0,1
Huntington Park,California,0,0,0,0,0,1
Lancaster,Pennsylvania,0,0,0,0,0,1
Redmond,Washington,0,0,0,0,0,1
Moore,Oklahoma,0,0,0,0,0,1
National City,California,0,0,0,0,0,1
Rocklin,California,0,0,0,0,0,1
Georgetown,Texas,0,0,0,0,0,1
Grand Junction,Colorado,0,0,0,0,0,1
Coon Rapids,Minnesota,0,0,0,0,0,1
Tulare,California,0,0,0,0,0,1
Gardena,California,0,0,0,0,0,1
Wellington,Florida,0,0,0,0,0,1
Rogers,Arkansas,0,0,0,0,0,1
Monterey Park,California,0,0,0,0,0,1
North Miami,Florida,0,0,0,0,0,1
Utica,New York,0,0,0,0,0,1
Blaine,Minnesota,0,0,0,0,0,1
Vineland,New Jersey,0,0,0,0,0,1
Terre Haute,Indiana,0,0,0,0,0,1
Malden,Massachusetts,0,0,0,0,0,1
Jupiter,Florida,0,0,0,0,0,1
Cupertino,California,0,0,0,0,0,1
West Allis,Wisconsin,0,0,0,0,0,1
Bristol,Connecticut,0,0,0,0,0,1
Taylorsville,Utah,0,0,0,0,0,1
La Mesa,California,0,0,0,0,0,1
Great Falls,Montana,0,0,0,0,0,1
Burnsville,Minnesota,0,0,0,0,0,1
Kokomo,Indiana,0,0,0,0,0,1
Santee,California,0,0,0,0,0,1
Midwest City,Oklahoma,0,0,0,0,0,1
San Marcos,Texas,0,0,0,0,0,1
Oak Lawn,Illinois,0,0,0,0,0,1
Brentwood,California,0,0,0,0,0,1
Eastvale,California,0,0,0,0,0,1
Fountain Valley,California,0,0,0,0,0,1
Diamond Bar,California,0,0,0,0,0,1
Berwyn,Illinois,0,0,0,0,0,1
Valdosta,Georgia,0,0,0,0,0,1
Dearborn Heights,Michigan,0,0,0,0,0,1
Tinley Park,Illinois,0,0,0,0,0,1
Rocky Mount,North Carolina,0,0,0,0,0,1
Lehi,Utah,0,0,0,0,0,1
Manhattan,Kansas,0,0,0,0,0,1
St. Peters,Missouri,0,0,0,0,0,1
Margate,Florida,0,0,0,0,0,1
Grand Forks,North Dakota,0,0,0,0,0,1
New Brunswick,New Jersey,0,0,0,0,0,1
Portsmouth,Virginia,0,0,0,36.8354258,-76.2982742,1
Taunton,Massachusetts,0,0,0,0,0,1
Royal Oak,Michigan,0,0,0,0,0,1
Woodland,California,0,0,0,0,0,1
Owensboro,Kentucky,0,0,0,0,0,1
Port Orange,Florida,0,0,0,29.1383165,-80.9956105,1
Idaho Falls,Idaho,0,0,0,0,0,1
Orland Park,Illinois,0,0,0,0,0,1
Coconut Creek,Florida,0,0,0,0,0,1
Dubuque,Iowa,0,0,0,0,0,1
Novi,Michigan,0,0,0,0,0,1
Rowlett,Texas,0,0,0,0,0,1
Bartlett,Tennessee,0,0,0,0,0,1
Des Plaines,Illinois,0,0,0,0,0,1
White Plains,New York,0,0,0,0,0,1
Bowie,Maryland,0,0,0,0,0,1
Ocala,Florida,0,0,0,0,0,1
Noblesville,Indiana,0,0,0,0,0,1
Sanford,Florida,0,0,0,0,0,1
Medford,Massachusetts,0,0,0,0,0,1
La Habra,California,0,0,0,0,0,1
Taylor,Michigan,0,0,0,0,0,1
Tuscaloosa,Alabama,0,0,0,33.2098407,-87.5691735,1
Redondo Beach,California,0,0,0,0,0,1
St. Charles,Missouri,0,0,0,0,0,1
Walnut Creek,California,0,0,0,0,0,1
Bossier City,Louisiana,0,0,0,0,0,1
Jackson,Tennessee,0,0,0,0,0,1
Kenner,Louisiana,0,0,0,0,0,1
South San Francisco,California,0,0,0,0,0,1
Palo Alto,California,0,0,0,0,0,1
Maple Grove,Minnesota,0,0,0,0,0,1
Gaithersburg,Maryland,0,0,0,0,0,1
North Little Rock,Arkansas,0,0,0,0,0,1
Woodbury,Minnesota,0,0,0,0,0,1
Davis,California,0,0,0,0,0,1
Kissimmee,Florida,0,0,0,0,0,1
Portland,Maine,0,0,0,0,0,1
Oshkosh,Wisconsin,0,0,0,0,0,1
New Braunfels,Texas,0,0,0,0,0,1
Yorba Linda,California,0,0,0,0,0,1
Eagan,Minnesota,0,0,0,0,0,1
Pittsburg,California,0,0,0,0,0,1
Victoria,Texas,0,0,0,0,0,1
Broomfield,Colorado,0,0,0,0,0,1
Santa Fe,New Mexico,0,0,0,0,0,1
Muncie,Indiana,0,0,0,0,0,1
Rock Hill,South Carolina,0,0,0,0,0,1
Missoula,Montana,0,0,0,0,0,1
Rancho Cordova,California,0,0,0,0,0,1
Flower Mound,Texas,0,0,0,0,0,1
Palatine,Illinois,0,0,0,0,0,1
Weston,Florida,0,0,0,0,0,1
Jacksonville,North Carolina,0,0,0,0,0,1
Bismarck,North Dakota,0,0,0,0,0,1
Flagstaff,Arizona,0,0,0,0,0,1
Pasco,Washington,0,0,0,0,0,1
North Richland Hills,Texas,0,0,0,0,0,1
Mount Vernon,New York,0,0,0,0,0,1
Dothan,Alabama,0,0,0,0,0,1
Frederick,Maryland,0,0,0,0,0,1
Waterloo,Iowa,0,0,0,0,0,1
St. Cloud,Minnesota,0,0,0,0,0,1
Council Bluffs,Iowa,0,0,0,0,0,1
Montebello,California,0,0,0,0,0,1
Lorain,Ohio,0,0,0,0,0,1
Rockville,Maryland,0,0,0,0,0,1
Madera,California,0,0,0,0,0,1
Cedar Park,Texas,0,0,0,0,0,1
Santa Cruz,California,0,0,0,0,0,1
West Des Moines,Iowa,0,0,0,0,0,1
Eden Prairie,Minnesota,0,0,0,0,0,1
Alpharetta,Georgia,0,0,0,0,0,1
Waltham,Massachusetts,0,0,0,0,0,1
Cheyenne,Wyoming,0,0,0,0,0,1
Tamarac,Florida,0,0,0,0,0,1
South Jordan,Utah,0,0,0,0,0,1
Haverhill,Massachusetts,0,0,0,0,0,1
Hamilton,Ohio,0,0,0,0,0,1
Bowling Green,Kentucky,0,0,0,0,0,1
Encinitas,California,0,0,0,0,0,1
Greenville,South Carolina,0,0,0,0,0,1
Mansfield,Texas,0,0,0,0,0,1
Eau Claire,Wisconsin,0,0,0,0,0,1
Daytona Beach,Florida,0,0,0,0,0,1
Lodi,California,0,0,0,0,0,1
Bayonne,New Jersey,0,0,0,0,0,1
San Clemente,California,0,0,0,0,0,1
Schenectady,New York,0,0,0,0,0,1
Harlingen,Texas,0,0,0,0,0,1
Conroe,Texas,0,0,0,0,0,1
Johnson City,Tennessee,0,0,0,0,0,1
Yuba City,California,0,0,0,0,0,1
Homestead,Florida,0,0,0,0,0,1
Laguna Niguel,California,0,0,0,0,0,1
Skokie,Illinois,0,0,0,0,0,1
Janesville,Wisconsin,0,0,0,0,0,1
Marysville,Washington,0,0,0,0,0,1
East Orange,New Jersey,0,0,0,0,0,1
Youngstown,Ohio,0,0,0,0,0,1
Delray Beach,Florida,0,0,0,0,0,1
Shawnee,Kansas,0,0,0,0,0,1
Conway,Arkansas,0,0,0,0,0,1
Pico Rivera,California,0,0,0,0,0,1
Edinburg,Texas,0,0,0,26.3017374,-98.1633432,1
