city,state,area,time,number,lat,lon
New York,New York,3122,50.085955188422226,23,40.7127837,-74.0059413
Los Angeles,California,930.0,7.4399365026773046,4,34.0522342,-118.2436849
Chicago,Illinois,285,12.21292117214078,6,41.8781136,-87.6297982
Houston,Texas,,,0,29.7604267,-95.3698028
Philadelphia,Pennsylvania,2529.0,38.16433292313873,15,39.9525839,-75.1652215
Phoenix,Arizona,,,0,33.4483771,-112.0740373
San Antonio,Texas,,,0,29.4241219,-98.49362819999999
San Diego,California,,,0,32.715738,-117.1610838
Dallas,Texas,,,0,32.7766642,-96.79698789999999
San Jose,California,240,1.7584038084147078,1,37.3382082,-121.8863286
Austin,Texas,,,0,30.267153,-97.7430608
Jacksonville,Florida,,,0,30.3321838,-81.65565099999999
San Francisco,California,240,2.6131242984665675,1,37.7749295,-122.4194155
Indianapolis,Indiana,185,5.450400034683861,2,39.768403,-86.158068
Columbus,Ohio,224,3.520304602314028,2,39.9611755,-82.99879419999999
Fort Worth,Texas,,,0,32.7554883,-97.3307658
Charlotte,North Carolina,77,4.435140054140641,2,35.2270869,-80.8431267
Detroit,Michigan,1073,8.458576921158226,6,42.331427,-83.0457538
El Paso,Texas,560,2.9756918477571626,1,31.7618778,-106.4850217
Seattle,Washington,10946,12.111507912845402,7,47.6062095,-122.3320708
Denver,Colorado,17423,16.612956562514825,9,39.7392358,-104.990251
Washington,District of Columbia,248,8.273433272569724,3,38.9071923,-77.0368707
Memphis,Tennessee,,,0,35.1495343,-90.0489801
Boston,Massachusetts,2411,31.471039470890876,17,42.3600825,-71.0588801
Nashville-Davidson,Tennessee,,,0,36.1626638,-86.7816016
Baltimore,Maryland,223,4.438669808470442,2,39.2903848,-76.6121893
Oklahoma City,Oklahoma,,,0,35.4675602,-97.5164276
Portland,Oregon,4525,4.797105864888348,3,45.5230622,-122.6764816
Las Vegas,Nevada,2535,1.204224566813559,2,36.1699412,-115.1398296
Louisville/Jefferson County,Kentucky,185,3.8487835959463386,2,38.2526647,-85.7584557
Milwaukee,Wisconsin,904,26.2927596914036,12,43.0389025,-87.9064736
Albuquerque,New Mexico,1340,6.634025491155986,4,35.0853336,-106.6055534
Tucson,Arizona,,,0,32.2217429,-110.926479
Fresno,California,3140,12.45817602975464,5,36.7468422,-119.7725868
Sacramento,California,25167,36.88766509420649,14,38.5815719,-121.4943996
Long Beach,California,930.0,8.273026556542028,4,33.7700504,-118.1937395
Kansas City,Missouri,30,0.8877160991441336,1,39.0997265,-94.5785667
Mesa,Arizona,,,0,33.4151843,-111.8314724
Atlanta,Georgia,,,0,33.7489954,-84.3879824
Virginia Beach,Virginia,,,0,36.8529263,-75.97798499999999
Omaha,Nebraska,730,0.9678785590416306,2,41.2523634,-95.99798829999999
Colorado Springs,Colorado,17817,24.823254080998392,9,38.8338816,-104.8213634
Raleigh,North Carolina,270,4.589118044222035,3,35.7795897,-78.6381787
Miami,Florida,,,0,25.7616798,-80.1917902
Oakland,California,240,2.366059738507441,1,37.8043637,-122.2711137
Minneapolis,Minnesota,696,10.432960378056261,8,44.977753,-93.2650108
Tulsa,Oklahoma,,,0,36.1539816,-95.99277500000001
Cleveland,Ohio,1045,15.418813812520307,8,41.49932,-81.6943605
Wichita,Kansas,,,0,37.68717609999999,-97.33005299999999
New Orleans,Louisiana,,,0,29.95106579999999,-90.0715323
Arlington,Texas,,,0,32.735687,-97.10806559999999
Bakersfield,California,,,0,35.3732921,-119.0187125
Tampa,Florida,,,0,27.950575,-82.4571776
Aurora,Colorado,17423,18.946718424148614,9,39.7294319,-104.8319195
Honolulu,Hawaii,,,0,21.3069444,-157.8583333
Anaheim,California,930.0,6.402451941002541,4,33.8352932,-117.9145036
Santa Ana,California,930.0,6.7535385311683775,4,33.7455731,-117.8678338
Corpus Christi,Texas,,,0,27.8005828,-97.39638099999999
Riverside,California,930.0,4.001337951149576,4,33.9533487,-117.3961564
St. Louis,Missouri,30,0.7943478194751603,1,38.6270025,-90.19940419999999
Lexington-Fayette,Kentucky,120,2.4105981843754725,1,38.0405837,-84.5037164
Pittsburgh,Pennsylvania,863,25.879502294895502,10,40.44062479999999,-79.9958864
Stockton,California,13230,20.608901985681392,8,37.9577016,-121.2907796
Anchorage,Alaska,1640,0.9881807938924444,2,61.2180556,-149.9002778
Cincinnati,Ohio,264,3.6610229928107376,2,39.1031182,-84.5120196
St. Paul,Minnesota,741,13.174121310965525,9,44.9537029,-93.0899578
Greensboro,North Carolina,297,11.323433489065243,4,36.0726354,-79.7919754
Toledo,Ohio,1217,14.572833387285304,7,41.6639383,-83.55521200000001
Newark,New Jersey,3293.0,53.69165227215301,25,40.735657,-74.1723667
Plano,Texas,,,0,33.0198431,-96.6988856
Henderson,Nevada,2535,1.7358585497678223,2,36.0395247,-114.9817213
Lincoln,Nebraska,730,3.489111960104804,2,40.8257625,-96.6851982
Orlando,Florida,,,0,28.5383355,-81.3792365
Jersey City,New Jersey,3293.0,55.192828595712086,25,40.72815749999999,-74.0776417
Chula Vista,California,,,0,32.6400541,-117.0841955
Buffalo,New York,2200,19.537152338837544,10,42.88644679999999,-78.8783689
Fort Wayne,Indiana,354,11.263849595806406,4,41.079273,-85.1393513
Chandler,Arizona,,,0,33.3061605,-111.8412502
St. Petersburg,Florida,,,0,27.7518284,-82.6267345
Laredo,Texas,,,0,27.5305671,-99.48032409999999
Durham,North Carolina,270,5.879873850892355,3,35.9940329,-78.898619
Irvine,California,930.0,6.88503054517941,4,33.6839473,-117.7946942
Madison,Wisconsin,1073,22.333148105791306,12,43.0730517,-89.4012302
Norfolk,Virginia,,,0,36.8507689,-76.28587259999999
Lubbock,Texas,,,0,33.5778631,-101.8551665
Gilbert,Arizona,,,0,33.3528264,-111.789027
Winston-Salem,North Carolina,77,5.290348088258078,2,36.09985959999999,-80.244216
Glendale,Arizona,,,0,33.5386523,-112.1859866
Reno,Nevada,26127,17.602143313492515,14,39.5296329,-119.8138027
Hialeah,Florida,,,0,25.8575963,-80.2781057
Garland,Texas,,,0,32.912624,-96.63888329999999
Chesapeake,Virginia,,,0,36.7682088,-76.2874927
Irving,Texas,,,0,32.8140177,-96.9488945
North Las Vegas,Nevada,2535,1.350143526407751,2,36.1988592,-115.1175013
Scottsdale,Arizona,,,0,33.4941704,-111.9260519
Baton Rouge,Louisiana,,,0,30.4582829,-91.1403196
Fremont,California,240,1.8361322319216662,1,37.5482697,-121.9885719
Richmond,Virginia,199,5.905663269704989,2,37.5407246,-77.4360481
Boise City,Idaho,8296,11.234040468828042,5,43.6187102,-116.2146068
San Bernardino,California,930.0,3.097027341008106,4,34.1083449,-117.2897652
Birmingham,Alabama,,,0,33.5206608,-86.80248999999999
Spokane,Washington,8720,10.930699644297315,6,47.6587802,-117.4260466
Rochester,New York,2808,25.643417601512596,13,43.16103,-77.6109219
Modesto,California,7170,13.10238237635323,6,37.63909719999999,-120.9968782
Des Moines,Iowa,35,1.114887303022745,1,41.6005448,-93.6091064
Oxnard,California,690,5.649254736673747,2,34.1975048,-119.1770516
Tacoma,Washington,9946,9.808646675204,6,47.2528768,-122.4442906
Fontana,California,930.0,3.2615317648711155,4,34.0922335,-117.435048
Fayetteville,North Carolina,270,3.550767398758111,3,35.0526641,-78.87835849999999
Moreno Valley,California,930.0,3.994920827335604,4,33.9424658,-117.2296717
Columbus,Georgia,,,0,32.4609764,-84.9877094
Huntington Beach,California,930.0,7.898957169434343,4,33.660297,-117.9992265
Yonkers,New York,4146,65.34406798121756,29,40.9312099,-73.89874689999999
Montgomery,Alabama,,,0,32.3668052,-86.2999689
Aurora,Illinois,159,2.6705784082804866,3,41.7605849,-88.32007150000001
Glendale,California,930.0,7.317092254701556,4,34.1425078,-118.255075
Shreveport,Louisiana,,,0,32.5251516,-93.7501789
Akron,Ohio,362,8.911045625806228,6,41.0814447,-81.51900529999999
Little Rock,Arkansas,,,0,34.7464809,-92.28959479999999
Amarillo,Texas,,,0,35.2219971,-101.8312969
Augusta-Richmond County,Georgia,,,0,33.4734978,-82.0105148
Mobile,Alabama,,,0,30.6953657,-88.0398912
Grand Rapids,Michigan,1361,21.246327320879136,10,42.9633599,-85.6680863
Salt Lake City,Utah,29428,14.359361631390836,13,40.7607793,-111.8910474
Huntsville,Alabama,,,0,34.7303688,-86.5861037
Tallahassee,Florida,,,0,30.4382559,-84.28073289999999
Grand Prairie,Texas,,,0,32.7459645,-96.99778459999999
Overland Park,Kansas,30,1.0327868767312278,1,38.9822282,-94.6707917
Knoxville,Tennessee,73.0,5.808194187079315,3,35.9606384,-83.9207392
Brownsville,Texas,,,0,25.9017472,-97.4974838
Worcester,Massachusetts,5811,68.87818917597255,33,42.2625932,-71.8022934
Newport News,Virginia,,,0,37.0870821,-76.4730122
Santa Clarita,California,930.0,9.351752982883585,4,34.3916641,-118.542586
Providence,Rhode Island,2262,48.86609167513473,21,41.8239891,-71.4128343
Fort Lauderdale,Florida,,,0,26.1224386,-80.13731740000001
Garden Grove,California,930.0,6.906782385475321,4,33.7739053,-117.9414477
Oceanside,California,930.0,9.970330415367012,4,33.1958696,-117.3794834
Rancho Cucamonga,California,930.0,3.4638508364652214,4,34.10639889999999,-117.5931084
Santa Rosa,California,,,0,38.440429,-122.7140548
Port St. Lucie,Florida,,,0,27.2730492,-80.3582261
Chattanooga,Tennessee,,,0,35.0456297,-85.3096801
Tempe,Arizona,,,0,33.4255104,-111.9400054
Jackson,Mississippi,,,0,32.2987573,-90.1848103
Cape Coral,Florida,,,0,26.5628537,-81.9495331
Vancouver,Washington,5927,8.084415993457345,4,45.6387281,-122.6614861
Ontario,California,930.0,3.8827848126406,4,34.0633443,-117.6508876
Sioux Falls,South Dakota,,,0,43.5445959,-96.73110340000001
Peoria,Arizona,,,0,33.5805955,-112.2373779
Springfield,Missouri,,,0,37.2089572,-93.29229889999999
Pembroke Pines,Florida,,,0,26.007765,-80.2962555
Elk Grove,California,25167,36.31868664549621,14,38.4087993,-121.3716178
Salem,Oregon,5886,11.765784287514771,5,44.9428975,-123.0350963
Corona,California,930.0,4.822453638179691,4,33.8752935,-117.5664384
Lancaster,California,930.0,7.5102090618890545,4,34.6867846,-118.1541632
Eugene,Oregon,5044,5.337217812871536,3,44.0520691,-123.0867536
Palmdale,California,930.0,6.807167265571856,4,34.5794343,-118.1164613
McKinney,Texas,,,0,33.1972465,-96.6397822
Salinas,California,240,2.415427207078443,1,36.6777372,-121.6555013
Fort Collins,Colorado,20113,28.253384919948974,11,40.5852602,-105.084423
Cary,North Carolina,270,4.648081727053425,3,35.79154,-78.7811169
Hayward,California,240,1.9969985965894779,1,37.6688205,-122.0807964
Springfield,Massachusetts,6255,74.36159152352806,36,42.1014831,-72.589811
Pasadena,Texas,,,0,29.6910625,-95.2091006
Macon-Bibb County,Georgia,,,0,32.8406946,-83.6324022
Pomona,California,930.0,4.345615560123927,4,34.055103,-117.7499909
Alexandria,Virginia,248,8.657588319653927,3,38.8048355,-77.0469214
Escondido,California,930.0,10.67909979429106,4,33.1192068,-117.086421
Sunnyvale,California,240,1.9897127600319533,1,37.36883,-122.0363496
Lakewood,Colorado,22970,18.459198672189707,10,39.7047095,-105.0813734
Kansas City,Kansas,30,0.8114488837935674,1,39.114053,-94.6274636
Rockford,Illinois,892,23.27794730433456,10,42.2711311,-89.0939952
Torrance,California,930.0,8.854907628960987,4,33.8358492,-118.3406288
Hollywood,Florida,,,0,26.0112014,-80.1494901
Joliet,Illinois,159,3.8745942854873134,3,41.525031,-88.0817251
Bridgeport,Connecticut,2984,53.296983075701945,24,41.1865478,-73.19517669999999
Clarksville,Tennessee,,,0,36.5297706,-87.3594528
Paterson,New Jersey,3928.0,57.906587636297694,28,40.9167654,-74.17181099999999
Naperville,Illinois,159,2.411828578231675,3,41.7508391,-88.1535352
Frisco,Texas,,,0,33.1506744,-96.82361159999999
Mesquite,Texas,,,0,32.76679550000001,-96.5991593
Savannah,Georgia,,,0,32.0835407,-81.09983419999999
Syracuse,New York,2148,34.008225896150215,17,43.0481221,-76.14742439999999
Dayton,Ohio,264,3.392826080481438,2,39.7589478,-84.1916069
Pasadena,California,930.0,6.519231913359901,4,34.1477849,-118.1445155
Orange,California,930.0,6.4139005771857445,4,33.7877944,-117.8531119
Fullerton,California,930.0,6.246166335528959,4,33.8703596,-117.9242966
McAllen,Texas,,,0,26.2034071,-98.23001239999999
Killeen,Texas,,,0,31.1171194,-97.72779589999999
Hampton,Virginia,,,0,37.0298687,-76.34522179999999
Bellevue,Washington,10946,11.375620341586155,7,47.610377,-122.2006786
Warren,Michigan,1073,8.285768788658824,6,42.5144566,-83.01465259999999
Miramar,Florida,,,0,25.9860762,-80.30356019999999
West Valley City,Utah,29428,15.594161484855267,13,40.6916132,-112.0010501
Olathe,Kansas,30,1.185846070179722,1,38.8813958,-94.81912849999999
Columbia,South Carolina,50,3.073228754068419,1,34.0007104,-81.0348144
Sterling Heights,Michigan,1073,8.14930158824515,6,42.5803122,-83.0302033
Thornton,Colorado,17423,17.181978386623086,9,39.8680412,-104.9719243
New Haven,Connecticut,2990,52.80939965684414,24,41.308274,-72.9278835
Waco,Texas,,,0,31.549333,-97.1466695
Charleston,South Carolina,,,0,32.7764749,-79.93105120000001
Thousand Oaks,California,690,4.42323235755593,2,34.1705609,-118.8375937
Visalia,California,2038,8.496672873594296,3,36.3302284,-119.2920585
Cedar Rapids,Iowa,222,6.249768125048494,3,41.9778795,-91.6656232
Elizabeth,New Jersey,3052.0,48.84147163634944,23,40.6639916,-74.2107006
Roseville,California,26367,34.4587038176413,15,38.7521235,-121.2880059
Gainesville,Florida,,,0,29.6516344,-82.32482619999999
Carrollton,Texas,,,0,32.9756415,-96.8899636
Stamford,Connecticut,3933,58.50033558135944,26,41.0534302,-73.5387341
Denton,Texas,,,0,33.2148412,-97.13306829999999
Midland,Texas,,,0,31.9973456,-102.0779146
Coral Springs,Florida,,,0,26.271192,-80.2706044
Concord,California,240,2.0717867802365624,1,37.9779776,-122.0310733
Topeka,Kansas,30,1.5686992839594325,1,39.0558235,-95.68901849999999
Simi Valley,California,690,4.180660326443935,2,34.2694474,-118.781482
Surprise,Arizona,,,0,33.6292337,-112.3679279
Lafayette,Louisiana,,,0,30.2240897,-92.0198427
Kent,Washington,10946,11.60016573349587,7,47.3809335,-122.2348431
Hartford,Connecticut,5138,73.53300164360482,33,41.76371109999999,-72.6850932
Santa Clara,California,240,1.8620092763262261,1,37.3541079,-121.9552356
Victorville,California,930.0,3.591318143631976,4,34.5362184,-117.2927641
Abilene,Texas,,,0,32.4487364,-99.73314390000002
Murfreesboro,Tennessee,,,0,35.8456213,-86.39027
Evansville,Indiana,65,2.321900861307666,1,37.9715592,-87.5710898
Vallejo,California,240,2.5469044009440007,1,38.1040864,-122.2566367
Athens-Clarke County,Georgia,8,2.620932654930282,1,33.9519347,-83.357567
Allentown,Pennsylvania,2947.0,33.35746088756791,20,40.6084305,-75.4901833
Berkeley,California,240,2.3999959697360893,1,37.8715926,-122.272747
Norman,Oklahoma,,,0,35.2225668,-97.4394777
Ann Arbor,Michigan,1173,10.160669107974629,7,42.2808256,-83.7430378
Beaumont,Texas,,,0,30.080174,-94.1265562
Independence,Missouri,30,1.0980697506678667,1,39.0911161,-94.41550679999999
Columbia,Missouri,30,3.122063693545117,1,38.9517053,-92.3340724
Springfield,Illinois,,,0,39.78172130000001,-89.6501481
El Monte,California,930.0,5.92536676358926,4,34.0686206,-118.0275667
Fargo,North Dakota,65,6.1437398899848485,2,46.8771863,-96.7898034
Peoria,Illinois,28,2.514388289867438,1,40.6936488,-89.5889864
Provo,Utah,28964,14.281685383610252,12,40.2338438,-111.6585337
Lansing,Michigan,1439,25.53704412363161,12,42.732535,-84.5555347
Odessa,Texas,,,0,31.8456816,-102.3676431
Downey,California,930.0,7.10015523058021,4,33.9401088,-118.1331593
Wilmington,North Carolina,220,5.620716425607755,2,34.2257255,-77.9447102
Arvada,Colorado,17423,15.297848321726459,9,39.8027644,-105.0874842
Costa Mesa,California,930.0,7.670379343372825,4,33.6411316,-117.9186689
Round Rock,Texas,,,0,30.5082551,-97.678896
Carlsbad,California,930.0,10.279378611644956,4,33.1580933,-117.3505939
Miami Gardens,Florida,,,0,25.9420377,-80.2456045
Westminster,Colorado,17423,16.123112784821238,9,39.8366528,-105.0372046
Inglewood,California,930.0,8.461889629808402,4,33.9616801,-118.3531311
Rochester,Minnesota,776,19.175684234946818,9,44.0121221,-92.4801989
Fairfield,California,240,2.3866961054115117,1,38.24935809999999,-122.0399663
Elgin,Illinois,241,7.986273509252351,5,42.0354084,-88.2825668
West Jordan,Utah,29428,14.856634582881808,13,40.6096698,-111.9391031
Clearwater,Florida,,,0,27.9658533,-82.8001026
Manchester,New Hampshire,9730,80.26813573863086,39,42.9956397,-71.4547891
Lowell,Massachusetts,6192,68.57917151393899,32,42.6334247,-71.31617179999999
Gresham,Oregon,5331,6.683064096272917,4,45.5001357,-122.4302013
Cambridge,Massachusetts,2411,30.40494484190442,17,42.3736158,-71.10973349999999
San Buenaventura (Ventura),California,690,5.82059955563068,2,34.274646,-119.2290316
Temecula,California,930.0,7.473170403986333,4,33.4936391,-117.1483648
Waterbury,Connecticut,3964,60.56139912924351,29,41.5581525,-73.0514965
Antioch,California,2782,8.187882752902725,3,38.0049214,-121.805789
Billings,Montana,1784,4.6911899357486835,2,45.7832856,-108.5006904
High Point,North Carolina,297,11.152190374704018,4,35.9556923,-80.0053176
Richardson,Texas,,,0,32.9483335,-96.7298519
Richmond,California,240,2.563886737182971,1,37.9357576,-122.3477486
West Covina,California,930.0,5.35332450579775,4,34.0686208,-117.9389526
Pueblo,Colorado,800,3.0081787487401317,1,38.2544472,-104.6091409
Murrieta,California,930.0,6.941440366399858,4,33.5539143,-117.2139232
Centennial,Colorado,17423,18.423330762624236,9,39.5807452,-104.8771726
Norwalk,California,930.0,6.95565657593527,4,33.9022367,-118.081733
North Charleston,South Carolina,,,0,32.8546197,-79.9748103
Everett,Washington,10946,13.419819316158952,7,47.9789848,-122.2020794
Pompano Beach,Florida,,,0,26.2378597,-80.1247667
Daly City,California,240,2.683290576053384,1,37.6879241,-122.4702079
Palm Bay,Florida,,,0,28.0344621,-80.5886646
Burbank,California,930.0,7.649473708245225,4,34.1808392,-118.3089661
Wichita Falls,Texas,,,0,33.9137085,-98.4933873
Boulder,Colorado,26060,26.08665837816233,13,40.0149856,-105.2705456
Green Bay,Wisconsin,1153,25.362839741788306,10,44.51915899999999,-88.019826
Broken Arrow,Oklahoma,,,0,36.060949,-95.7974526
West Palm Beach,Florida,,,0,26.7153424,-80.0533746
College Station,Texas,,,0,30.627977,-96.3344068
Pearland,Texas,,,0,29.5635666,-95.2860474
Santa Maria,California,,,0,34.9530337,-120.4357191
El Cajon,California,240.0,6.4441423869575445,2,32.7947731,-116.9625269
San Mateo,California,240,2.4267040426073248,1,37.5629917,-122.3255254
Lewisville,Texas,,,0,33.046233,-96.994174
Rialto,California,930.0,3.1430679566611666,4,34.1064001,-117.3703235
Davenport,Iowa,222,4.47510621817068,3,41.5236437,-90.5776367
Lakeland,Florida,,,0,28.0394654,-81.9498042
Clovis,California,3140,11.672491874315975,5,36.8252277,-119.7029194
Sandy Springs,Georgia,,,0,33.9304352,-84.3733147
Tyler,Texas,,,0,32.3512601,-95.30106239999999
Las Cruces,New Mexico,1310,5.2389611632107504,2,32.3199396,-106.7636538
South Bend,Indiana,235,9.42770990288603,5,41.6763545,-86.25198979999999
Kenosha,Wisconsin,502,22.713072007882648,10,42.5847425,-87.82118539999999
Erie,Pennsylvania,1517,20.714815299843792,9,42.12922409999999,-80.085059
Roanoke,Virginia,495,9.683194199317374,4,37.2709704,-79.9414266
Hillsboro,Oregon,4525,6.225678078475866,3,45.5228939,-122.989827
Flint,Michigan,1213,13.443177747974362,8,43.0125274,-83.6874562
San Angelo,Texas,,,0,31.4637723,-100.4370375
Davie,Florida,,,0,26.0764783,-80.25211569999999
Jurupa Valley,California,930.0,3.852884175877297,4,33.9971974,-117.4854802
Compton,California,930.0,7.835633984602023,4,33.8958492,-118.2200712
Greeley,Colorado,9977,18.097764450328057,7,40.4233142,-104.7091322
Albany,New York,7690,77.08398294104417,38,42.6525793,-73.7562317
Renton,Washington,10946,11.33563989248181,7,47.48287759999999,-122.2170661
Vista,California,930.0,9.906233413732608,4,33.2000368,-117.2425355
Mission Viejo,California,930.0,7.114513027298653,4,33.6000232,-117.6719953
Lawton,Oklahoma,,,0,34.6035669,-98.39592909999999
South Gate,California,930.0,7.546956948228964,4,33.954737,-118.2120161
Tuscaloosa,Alabama,,,0,33.2098407,-87.56917349999999
Portsmouth,Virginia,,,0,36.8354258,-76.2982742
Vacaville,California,240,2.4671079494225014,1,38.3565773,-121.9877444
Dearborn,Michigan,1073,7.615666241306743,6,42.3222599,-83.17631449999999
Beaverton,Oregon,5080,8.559163095537652,4,45.48706199999999,-122.8037102
Livonia,Michigan,1073,6.576984792236582,6,42.36837,-83.35270969999999
New Bedford,Massachusetts,1052,22.43339504508519,10,41.6362152,-70.93420499999999
Brockton,Massachusetts,1861,30.55879518057567,15,42.0834335,-71.0183787
Sparks,Nevada,26127,18.610335813002187,14,39.5349112,-119.7526886
League City,Texas,,,0,29.5074538,-95.0949303
Allen,Texas,,,0,33.1031744,-96.67055030000002
Roswell,Georgia,,,0,34.0232431,-84.3615555
Lee's Summit,Missouri,30,1.4274140562314561,1,38.9108408,-94.3821724
Rio Rancho,New Mexico,1340,6.361514614058673,4,35.2327544,-106.6630437
Federal Way,Washington,10946,12.183673102667509,7,47.3223221,-122.3126222
Yuma,Arizona,,,0,32.6926512,-114.6276916
Quincy,Massachusetts,2411,34.250204686893845,17,42.2528772,-71.0022705
Yakima,Washington,10694,14.927514140450171,6,46.6020711,-120.5058987
Carson,California,930.0,8.502431683620735,4,33.8316745,-118.281693
Santa Monica,California,930.0,9.252647283699423,4,34.0194543,-118.4911912
San Marcos,California,930.0,10.416460407466616,4,33.1433723,-117.1661449
Lawrence,Kansas,30,1.1331810847373436,1,38.9716689,-95.2352501
Hesperia,California,930.0,3.05177851106302,4,34.4263886,-117.3008784
Lynn,Massachusetts,2301,31.95272997756981,17,42.46676300000001,-70.9494938
Westminster,California,930.0,7.30153097035093,4,33.7513419,-117.9939921
Orem,Utah,29428,16.219229305586573,13,40.2968979,-111.6946475
Miami Beach,Florida,,,0,25.790654,-80.1300455
Spokane Valley,Washington,8720,10.390113252666225,6,47.6732281,-117.2393748
Redding,California,3925,4.625325544034824,2,40.5865396,-122.3916754
Plantation,Florida,,,0,26.1275862,-80.23310359999999
Boca Raton,Florida,,,0,26.3683064,-80.1289321
Sunrise,Florida,,,0,26.1669711,-80.25659499999999
Santa Barbara,California,,,0,34.4208305,-119.6981901
Sandy,Utah,29428,13.736186198980912,13,40.5649781,-111.8389726
Longmont,Colorado,20513,26.7507317581782,12,40.1672068,-105.1019275
Greenville,North Carolina,220,4.371889799970084,2,35.612661,-77.3663538
San Leandro,California,240,2.140044376456265,1,37.7249296,-122.1560768
Chico,California,13285,23.576707803160428,8,39.7284944,-121.8374777
Waukegan,Illinois,312,13.767321240512398,7,42.3636331,-87.84479379999999
Fall River,Massachusetts,1380,28.98979940050902,13,41.7014912,-71.1550451
Edmond,Oklahoma,,,0,35.6528323,-97.47809540000002
Newton,Massachusetts,4062,51.54181394383821,24,42.3370413,-71.20922139999999
Nampa,Idaho,6242,9.769511343062096,4,43.5407172,-116.5634624
Norwalk,Connecticut,3445,58.78084112236881,26,41.11774399999999,-73.4081575
Asheville,North Carolina,100.0,5.729648135326494,4,35.5950581,-82.5514869
Reading,Pennsylvania,2345.0,29.19867559888388,15,40.3356483,-75.9268747
Meridian,Idaho,6242,8.84072128968788,4,43.6121087,-116.3915131
Hawthorne,California,930.0,8.614286329661736,4,33.9164032,-118.3525748
Fort Smith,Arkansas,,,0,35.3859242,-94.39854749999999
Whittier,California,930.0,6.3080704057501125,4,33.9791793,-118.032844
Newport Beach,California,930.0,7.865419476524524,4,33.6189101,-117.9289469
Nashua,New Hampshire,8943,80.82289683442362,38,42.7653662,-71.46756599999999
Deltona,Florida,,,0,28.9005446,-81.26367379999999
Livermore,California,240,1.4512090093774184,1,37.6818745,-121.7680088
Suffolk,Virginia,,,0,36.7282054,-76.5835621
Sugar Land,Texas,,,0,29.6196787,-95.6349463
Carmel,Indiana,185,6.15287592888263,2,39.978371,-86.1180435
Fishers,Indiana,185,5.981200707708421,2,39.9567548,-86.01335
Bloomington,Minnesota,696,9.530514430201944,8,44.840798,-93.2982799
Duluth,Minnesota,4764,24.953413950842982,10,46.78667189999999,-92.1004852
Citrus Heights,California,26367,34.67027470478743,15,38.7071247,-121.2810611
Clifton,New Jersey,3818.0,56.575383841650144,27,40.8584328,-74.16375529999999
Tracy,California,5170,12.905130644360074,5,37.7396513,-121.4252227
Kirkland,Washington,10946,11.654906229676811,7,47.6814875,-122.2087353
Indio,California,930.0,9.332878682130675,4,33.7205771,-116.2155619
Alhambra,California,930.0,6.517306901294932,4,34.095287,-118.1270146
Concord,North Carolina,77,4.252768331406418,2,35.4087517,-80.579511
Menifee,California,930.0,5.804676603878676,4,33.6971468,-117.185294
Chino,California,930.0,4.323242658082164,4,34.0122346,-117.688944
Champaign,Illinois,,,0,40.1164204,-88.2433829
Cicero,Illinois,235,9.135647076344707,5,41.8455877,-87.7539448
Hoover,Alabama,,,0,33.4053867,-86.8113781
Ogden,Utah,28778,15.334192021696662,12,41.223,-111.9738304
Bend,Oregon,7419,9.187478835216421,5,44.0581728,-121.3153096
Trenton,New Jersey,2664.0,40.97724960454141,18,40.2170534,-74.7429384
O'Fallon,Missouri,30,0.6959428102325113,1,38.8106075,-90.69984769999999
Danbury,Connecticut,3863,60.10135833407002,29,41.394817,-73.4540111
Bellingham,Washington,4944,8.602251197688805,4,48.74908,-122.4781473
Bloomington,Indiana,185,4.252573029968884,2,39.165325,-86.52638569999999
Troy,Michigan,1073,7.314550733567069,6,42.6064095,-83.1497751
Buena Park,California,930.0,6.653599834892285,4,33.8675143,-117.9981181
Johns Creek,Georgia,8,3.136506908831406,1,34.0289259,-84.198579
Hemet,California,930.0,5.713825465528499,4,33.7475203,-116.9719684
Edinburg,Texas,,,0,26.3017374,-98.1633432
Redwood City,California,240,2.284983704399569,1,37.48521520000001,-122.2363548
Sioux City,Iowa,50,2.6771013245435653,1,42.4999942,-96.40030689999999
Mission,Texas,,,0,26.2159066,-98.32529319999999
Westland,Michigan,1073,6.55408642039544,6,42.32420399999999,-83.400211
Warwick,Rhode Island,1815,41.89149622764707,18,41.7001009,-71.4161671
Merced,California,7120,15.97929622438578,7,37.3021632,-120.4829677
Lakewood,California,930.0,7.50102819926159,4,33.8536269,-118.1339563
Longview,Texas,,,0,32.5007037,-94.74048909999999
Farmington Hills,Michigan,1073,6.2084049056206725,6,42.4989936,-83.3677168
Cranston,Rhode Island,2262,49.51414578153617,21,41.7798226,-71.4372796
Bryan,Texas,,,0,30.6743643,-96.3699632
Fayetteville,Arkansas,,,0,36.0625795,-94.1574263
Tustin,California,930.0,6.578042257600543,4,33.7458511,-117.826166
Palm Coast,Florida,,,0,29.5844524,-81.20786989999999
Lake Forest,California,930.0,6.808234944605916,4,33.6469661,-117.689218
Parma,Ohio,1045,15.34231965161597,8,41.4047742,-81.7229086
Napa,California,240,2.8023197264079687,1,38.2975381,-122.286865
Avondale,Arizona,,,0,33.4355977,-112.3496021
New Rochelle,New York,3896,61.59870744863448,27,40.9114882,-73.7823549
Mountain View,California,240,2.0608958527134633,1,37.3860517,-122.0838511
Lynchburg,Virginia,520,11.12305863054178,5,37.4137536,-79.14224639999999
Largo,Florida,,,0,27.9094665,-82.7873244
Somerville,Massachusetts,2411,30.36172704246534,17,42.3875968,-71.0994968
Deerfield Beach,Florida,,,0,26.3184123,-80.09976569999999
Bloomington,Illinois,,,0,40.4842027,-88.99368729999999
Brooklyn Park,Minnesota,696,11.696943217890729,8,45.0941315,-93.3563405
Medford,Oregon,4145,5.914953287722687,3,42.3265152,-122.8755949
St. George,Utah,600,3.089071916671497,1,37.0965278,-113.5684164
Melbourne,Florida,,,0,28.0836269,-80.60810889999999
Hammond,Indiana,285,13.935414921473994,6,41.5833688,-87.5000412
Bellflower,California,930.0,7.264470828489332,4,33.8816818,-118.1170117
Lawrence,Massachusetts,6159,64.7358930755261,30,42.7070354,-71.1631137
Racine,Wisconsin,534,25.50980678160875,11,42.7261309,-87.78285230000002
Gary,Indiana,285,13.799921708839216,6,41.5933696,-87.3464271
Mount Pleasant,South Carolina,,,0,32.8323225,-79.82842579999999
Pleasanton,California,240,1.634230264900621,1,37.6624312,-121.8746789
Alameda,California,240,2.3008507899531545,1,37.7652065,-122.2416355
Kennewick,Washington,2555,6.448961175996547,3,46.2112458,-119.1372338
Camden,New Jersey,2529.0,39.02713887897957,15,39.9259463,-75.1196199
Baldwin Park,California,930.0,5.43127086816376,4,34.0852868,-117.9608978
Chino Hills,California,930.0,4.635003400496088,4,33.9898188,-117.7325848
St. Joseph,Missouri,710,4.020049978581327,2,39.7674578,-94.84668099999999
Springdale,Arkansas,,,0,36.18674420000001,-94.1288141
Auburn,Washington,10946,11.818134554909669,7,47.30732279999999,-122.2284532
Baytown,Texas,,,0,29.7355047,-94.97742740000001
Upland,California,930.0,3.6824543482900727,4,34.09751,-117.6483876
Arlington Heights,Illinois,262,11.11318295478421,6,42.0883603,-87.98062650000001
Kalamazoo,Michigan,456,7.733090903131916,6,42.2917069,-85.5872286
Albany,Georgia,,,0,31.5785074,-84.15574099999999
Goodyear,Arizona,,,0,33.4353394,-112.3576567
Evanston,Illinois,335,14.833029649532998,7,42.0450722,-87.68769689999999
Pharr,Texas,,,0,26.1947962,-98.1836216
Folsom,California,26367,32.72491474864087,15,38.6779591,-121.1760583
San Ramon,California,240,1.8503290252598974,1,37.7799273,-121.9780153
Scranton,Pennsylvania,4538.0,58.606977026235036,29,41.408969,-75.66241219999999
Bethlehem,Pennsylvania,2947.0,32.4359974689629,20,40.6259316,-75.37045789999999
Plymouth,Minnesota,696,11.378969411836419,8,45.0105194,-93.4555093
Schaumburg,Illinois,225,7.930595588125037,5,42.0333607,-88.0834059
Lake Charles,Louisiana,,,0,30.2265949,-93.2173758
Wyoming,Michigan,1231,18.124506848687098,9,42.9133602,-85.7053085
Bolingbrook,Illinois,159,2.7345324804473483,3,41.69864159999999,-88.0683955
Decatur,Illinois,,,0,39.8403147,-88.9548001
Appleton,Wisconsin,917,14.868458819108486,8,44.2619309,-88.41538469999999
Perris,California,930.0,5.129148759806254,4,33.7825194,-117.2286478
Gastonia,North Carolina,142,7.43740260779682,3,35.262082,-81.18730049999999
Milpitas,California,240,1.7204503276068324,1,37.4323341,-121.8995741
Union City,California,240,1.928450710973171,1,37.5933918,-122.0438298
Manteca,California,7170,14.120191493985676,6,37.7974273,-121.2160526
Iowa City,Iowa,222,6.262432911122885,3,41.6611277,-91.5301683
Warner Robins,Georgia,,,0,32.6130007,-83.624201
Rochester Hills,Michigan,1073,7.360448601454357,6,42.65836609999999,-83.1499322
Boynton Beach,Florida,,,0,26.5317866,-80.0905465
Southfield,Michigan,1073,6.959741218248105,6,42.4733688,-83.2218731
New Britain,Connecticut,4550,68.06666377075595,31,41.6612104,-72.7795419
Loveland,Colorado,20113,26.23247896343924,11,40.3977612,-105.0749801
Rapid City,South Dakota,1040,2.086679915642419,2,44.0805434,-103.2310149
Canton,Ohio,462,14.226872500954372,7,40.79894729999999,-81.378447
Layton,Utah,28778,13.871142226947326,12,41.0602216,-111.9710529
Jonesboro,Arkansas,,,0,35.84229670000001,-90.704279
Lynwood,California,930.0,7.63863252541141,4,33.930293,-118.2114603
Wilmington,Delaware,1832.0,30.01961430044728,11,39.7390721,-75.5397878
Gulfport,Mississippi,,,0,30.3674198,-89.0928155
Missouri City,Texas,,,0,29.6185669,-95.5377215
Apple Valley,California,930.0,3.4481375506755767,4,34.5008311,-117.1858759
Passaic,New Jersey,3818.0,57.13325016869233,27,40.8567662,-74.1284764
Pawtucket,Rhode Island,2262,48.13195822783798,21,41.878711,-71.38255579999999
Waukesha,Wisconsin,888,20.67780123590009,11,43.0116784,-88.2314813
Turlock,California,9120,19.692867203800972,8,37.4946568,-120.8465941
Fort Myers,Florida,,,0,26.640628,-81.8723084
Temple,Texas,,,0,31.0982344,-97.342782
Lafayette,Indiana,,,0,40.4167022,-86.87528689999999
Lauderhill,Florida,,,0,26.1403635,-80.2133808
Redlands,California,930.0,3.3371343270095393,4,34.0555693,-117.1825381
Franklin,Tennessee,,,0,35.9250637,-86.8688899
Santa Fe,New Mexico,3491,10.46149771244174,7,35.6869752,-105.937799
Muncie,Indiana,264,5.399886092442584,2,40.1933767,-85.3863599
Rock Hill,South Carolina,77,5.057104778182117,2,34.9248667,-81.02507840000001
Missoula,Montana,7090,12.791416562168768,6,46.87871759999999,-113.996586
Rancho Cordova,California,25167,32.981568991558724,14,38.5890723,-121.302728
Flower Mound,Texas,,,0,33.0145673,-97.0969552
Palatine,Illinois,262,10.982382093560297,6,42.1103041,-88.03424000000001
Weston,Florida,,,0,26.1003654,-80.3997748
Jacksonville,North Carolina,220,4.94045996781086,2,34.7540524,-77.4302414
Bismarck,North Dakota,,,0,46.8083268,-100.7837392
Flagstaff,Arizona,777,0.0,1,35.1982836,-111.651302
Union City,New Jersey,3533,54.45820581050914,25,40.7795455,-74.02375119999999
Pasco,Washington,2555,6.361553141931607,3,46.2395793,-119.1005657
North Richland Hills,Texas,,,0,32.8342952,-97.2289029
Mount Vernon,New York,4036,63.81449098864343,28,40.9125992,-73.8370786
Dothan,Alabama,,,0,31.2232313,-85.3904888
Frederick,Maryland,386,11.532751712161843,5,39.41426879999999,-77.4105409
Waterloo,Iowa,229,8.597596494873411,3,42.492786,-92.34257749999999
Redondo Beach,California,930.0,9.106454381435835,4,33.8491816,-118.3884078
Pittsburg,California,240,1.8906809015625168,1,38.0279762,-121.8846806
St. Charles,Missouri,30,0.6738385285282312,1,38.7881062,-90.4974359
Yorba Linda,California,930.0,5.600287230089778,4,33.8886259,-117.8131125
Eau Claire,Wisconsin,4097,26.79915030967833,12,44.811349,-91.4984941
Walnut Creek,California,240,2.0739312479059,1,37.9100783,-122.0651819
Bossier City,Louisiana,,,0,32.5159852,-93.7321228
Jackson,Tennessee,,,0,35.6145169,-88.81394689999999
Kenner,Louisiana,,,0,29.9940924,-90.2417434
South San Francisco,California,240,2.5701168304219624,1,37.654656,-122.4077498
Palo Alto,California,240,2.136806208435389,1,37.4418834,-122.1430195
Maple Grove,Minnesota,696,11.873362378671873,8,45.0724642,-93.4557877
Camarillo,California,690,5.1321311480566685,2,34.2163937,-119.0376023
Gaithersburg,Maryland,248,7.018311507933021,3,39.1434406,-77.2013705
North Little Rock,Arkansas,,,0,34.769536,-92.2670941
Woodbury,Minnesota,741,12.989001462157399,9,44.9238552,-92.9593797
Davis,California,25167,42.3337902129573,14,38.5449065,-121.7405167
Kissimmee,Florida,,,0,28.2919557,-81.40757099999999
Portland,Maine,6736,56.2107996109928,24,43.66147100000001,-70.2553259
Oshkosh,Wisconsin,949,14.495927109616554,9,44.0247062,-88.5426136
New Braunfels,Texas,,,0,29.7030024,-98.1244531
St. Cloud,Minnesota,691,18.755760700137127,8,45.5579451,-94.16324039999999
Victoria,Texas,,,0,28.8052674,-97.0035982
Eagan,Minnesota,696,9.34600322115493,8,44.8041322,-93.1668858
Bayonne,New Jersey,3052.0,49.9760931076088,23,40.6687141,-74.1143091
Rockville,Maryland,248,7.334794577799997,3,39.0839973,-77.1527578
Schenectady,New York,7261,67.21585051689281,34,42.8142432,-73.9395687
Harlingen,Texas,,,0,26.1906306,-97.69610259999999
Conroe,Texas,,,0,30.3118769,-95.45605119999999
Johnson City,Tennessee,100.0,8.073084790210785,4,36.3134397,-82.3534727
Yuba City,California,25265,34.140237135271235,13,39.1404477,-121.6169108
Homestead,Florida,,,0,25.4687224,-80.4775569
Laguna Niguel,California,930.0,7.806035597609039,4,33.5225261,-117.7075526
San Clemente,California,930.0,8.335167283470724,4,33.4269728,-117.6119925
Skokie,Illinois,335,14.898377012408378,7,42.0324025,-87.7416246
Marysville,Washington,10946,13.899958806986936,7,48.0517637,-122.1770818
East Orange,New Jersey,3533.0,55.54402325517217,26,40.767323,-74.2048677
Youngstown,Ohio,462,13.546038216115889,7,41.0997803,-80.6495194
Delray Beach,Florida,,,0,26.4614625,-80.0728201
Shawnee,Kansas,30,0.9206940126867245,1,39.02284849999999,-94.7151865
Conway,Arkansas,,,0,35.0886963,-92.4421011
Pico Rivera,California,930.0,6.6924764249624396,4,33.9830688,-118.096735
Janesville,Wisconsin,1082,27.928799396527275,13,42.6827885,-89.0187222
Lodi,California,21385,28.725375137063036,11,38.1341477,-121.2722194
Montebello,California,930.0,6.675357590700179,4,34.0165053,-118.1137535
Tamarac,Florida,,,0,26.2128609,-80.2497707
Lorain,Ohio,1005,13.633393761606303,7,41.452819,-82.1823746
Madera,California,3140,11.010456178528841,5,36.9613356,-120.0607176
Cedar Park,Texas,,,0,30.505198,-97.8202888
Santa Cruz,California,240,2.374758956771094,1,36.9741171,-122.0307963
West Des Moines,Iowa,35,1.1082308798329712,1,41.5772115,-93.711332
Ames,Iowa,35,0.41484477834742245,1,42.0307812,-93.63191309999999
Eden Prairie,Minnesota,696,10.590270124683018,8,44.8546856,-93.47078599999999
Alpharetta,Georgia,8,3.1752603861319555,1,34.0753762,-84.2940899
Waltham,Massachusetts,4342,56.63630815205295,26,42.3764852,-71.2356113
Daytona Beach,Florida,,,0,29.2108147,-81.0228331
Cheyenne,Wyoming,1161,8.112795595317904,3,41.1399814,-104.8202462
South Jordan,Utah,29428,14.948716463541704,13,40.5621704,-111.929658
Haverhill,Massachusetts,6046,65.41127976986576,30,42.7762015,-71.0772796
Hamilton,Ohio,264,3.384077764978206,2,39.3995008,-84.5613355
Bowling Green,Kentucky,,,0,36.9685219,-86.4808043
Encinitas,California,930.0,11.306465618087866,4,33.0369867,-117.2919818
Greenville,South Carolina,100.0,9.413848128530967,4,34.85261759999999,-82.3940104
Mansfield,Texas,,,0,32.5631924,-97.1416768
Council Bluffs,Iowa,730,0.7463203124003936,2,41.2619444,-95.8608333
Broomfield,Colorado,20438,22.21344651461469,11,39.9205411,-105.0866504
Coon Rapids,Minnesota,741,15.560821855907557,9,45.1732394,-93.30300629999999
La Habra,California,930.0,6.025641904770614,4,33.9319578,-117.9461734
Tulare,California,450,2.343347297272484,1,36.2077288,-119.3473379
Burnsville,Minnesota,696,9.37728951004941,8,44.7677424,-93.27772259999999
Taylor,Michigan,1073,7.3990878546163,6,42.240872,-83.2696509
Wellington,Florida,,,0,26.6617635,-80.2683571
Rogers,Arkansas,,,0,36.3320196,-94.1185366
Monterey Park,California,930.0,6.582602684810804,4,34.0625106,-118.1228476
North Miami,Florida,,,0,25.8900949,-80.1867138
Utica,New York,2239,35.46674904773941,19,43.100903,-75.232664
Blaine,Minnesota,741,15.201627428866644,9,45.1607987,-93.23494889999999
Vineland,New Jersey,688,8.776397621238173,3,39.4863773,-75.02596369999999
Terre Haute,Indiana,65,2.60031242276281,1,39.4667034,-87.41390919999999
Malden,Massachusetts,2496,33.61788317594487,18,42.4250964,-71.066163
Jupiter,Florida,,,0,26.9342246,-80.0942087
Cupertino,California,240,2.0127929635596233,1,37.3229978,-122.0321823
West Allis,Wisconsin,904,25.52524847704124,12,43.0166806,-88.0070315
Bristol,Connecticut,4885,71.8820281322407,33,41.67176480000001,-72.9492703
Taylorsville,Utah,29428,14.747877240178713,13,40.66772479999999,-111.9388258
Gardena,California,930.0,8.4352836774384,4,33.8883487,-118.3089624
North Port,Florida,,,0,27.044224,-82.2359254
Rocklin,California,26367,33.045986647994326,15,38.7907339,-121.2357828
National City,California,,,0,32.6781085,-117.0991967
Meriden,Connecticut,3855,64.35123620673204,29,41.5381535,-72.80704349999999
Springfield,Oregon,5044,5.2405438349944,3,44.0462362,-123.0220289
Auburn,Alabama,,,0,32.6098566,-85.48078249999999
Grand Junction,Colorado,12513,12.476701682333335,5,39.0638705,-108.5506486
Casper,Wyoming,392,3.1787243566092696,2,42.866632,-106.313081
St. Clair Shores,Michigan,1073,9.209487538895946,6,42.4974085,-82.89636039999999
Lake Elsinore,California,930.0,6.0265810437695615,4,33.6680772,-117.3272615
Marietta,Georgia,,,0,33.95260200000001,-84.5499327
Springfield,Ohio,344,6.417107109765148,3,39.9242266,-83.8088171
Petaluma,California,,,0,38.232417,-122.6366524
Lakeville,Minnesota,696,9.852072726866565,8,44.6496868,-93.24271999999999
Pontiac,Michigan,1073,6.453297696114345,6,42.6389216,-83.29104679999999
Lakewood,Washington,7946,7.003759756635,5,47.1717649,-122.518458
Buckeye,Arizona,,,0,33.3703197,-112.5837766
Chapel Hill,North Carolina,270,5.579330984700772,3,35.9131996,-79.0558445
Huntington Park,California,930.0,7.534680519614536,4,33.9816812,-118.2250725
Lancaster,Pennsylvania,2310.0,37.93776715589124,15,40.0378755,-76.3055144
Redmond,Washington,10946,11.184839010789839,7,47.6739881,-122.121512
San Rafael,California,240,2.8958753862616704,1,37.9735346,-122.5310874
Moore,Oklahoma,,,0,35.3395079,-97.48670279999999
La Mesa,California,,,0,32.7678287,-117.0230839
Great Falls,Montana,2570,5.276450057420671,3,47.4941836,-111.2833449
Georgetown,Texas,,,0,30.6332618,-97.6779842
Royal Oak,Michigan,1073,7.406763570237856,6,42.4894801,-83.1446485
Des Plaines,Illinois,225,8.179691702876347,5,42.0333623,-87.88339909999999
San Marcos,Texas,,,0,29.8832749,-97.9413941
Port Orange,Florida,,,0,29.1383165,-80.9956105
Idaho Falls,Idaho,6740,7.821907885284446,5,43.49165139999999,-112.0339645
Orland Park,Illinois,159,3.5422505824252433,3,41.6303103,-87.85394250000002
Coconut Creek,Florida,,,0,26.2517482,-80.17893509999999
Dubuque,Iowa,774,13.312383540441061,7,42.5005583,-90.66457179999999
Novi,Michigan,1073,5.9184398371409355,6,42.48059,-83.4754913
Rowlett,Texas,,,0,32.9029017,-96.56388
Owensboro,Kentucky,65,2.0736244134157364,1,37.7719074,-87.1111676
Bartlett,Tennessee,,,0,35.2045328,-89.8739753
Arcadia,California,930.0,5.769710503378611,4,34.1397292,-118.0353449
White Plains,New York,4006,61.84217326701019,28,41.03398620000001,-73.7629097
Bowie,Maryland,223,5.167732371031066,2,39.0067768,-76.77913649999999
Ocala,Florida,,,0,29.1871986,-82.14009229999999
Noblesville,Indiana,120,2.9055526524251585,1,40.0455917,-86.0085955
Sanford,Florida,,,0,28.8028612,-81.269453
Medford,Massachusetts,2496,32.99754738482915,18,42.4184296,-71.1061639
Woodland,California,24305,38.8067536370279,13,38.67851570000001,-121.7732971
Tinley Park,Illinois,159,4.01571815755962,3,41.5731442,-87.7932939
Kokomo,Indiana,60,3.2005240041419873,1,40.486427,-86.13360329999999
New Brunswick,New Jersey,2814.0,41.43363212797342,20,40.4862157,-74.4518188
Santee,California,240.0,6.251802343907564,2,32.8383828,-116.9739167
Midwest City,Oklahoma,,,0,35.4495065,-97.3967019
Oak Lawn,Illinois,175,6.495000003394529,4,41.719978,-87.7479528
Brentwood,California,2782,7.65537387194962,3,37.931868,-121.6957863
Eastvale,California,930.0,4.354288080384857,4,33.952463,-117.5848025
Fountain Valley,California,930.0,7.372843036337764,4,33.7091847,-117.9536697
Diamond Bar,California,930.0,4.788905545772617,4,34.0286226,-117.8103367
Berwyn,Illinois,175,5.784971543859133,4,41.85058739999999,-87.7936685
Valdosta,Georgia,,,0,30.8327022,-83.2784851
Taunton,Massachusetts,1750,35.93150169746941,16,41.900101,-71.0897674
Dearborn Heights,Michigan,1073,7.020797049954045,6,42.3369816,-83.27326269999999
Rocky Mount,North Carolina,220,3.6485912812308663,2,35.9382103,-77.7905339
Lehi,Utah,29428,15.805968707946946,13,40.3916172,-111.8507662
Manhattan,Kansas,30,2.916462614456127,1,39.18360819999999,-96.57166939999999
St. Peters,Missouri,30,0.6332363020301635,1,38.7874699,-90.6298922
Margate,Florida,,,0,26.2445263,-80.206436
Grand Forks,North Dakota,,,0,47.9252568,-97.0328547
Chicopee,Massachusetts,6365,76.13587732721011,37,42.1487043,-72.6078672
Castle Rock,Colorado,18223,22.75620756708958,10,39.3722121,-104.8560902
Kettering,Ohio,264,3.4188366657495965,2,39.68950359999999,-84.1688274
Weymouth Town,Massachusetts,1850,26.169536316135492,14,42.2180724,-70.94103559999999
Decatur,Alabama,,,0,34.6059253,-86.9833417
Hempstead,New York,2577,40.452064217078984,18,40.7062128,-73.6187397
Porterville,California,450,2.65482226309602,1,36.06523,-119.0167679
Anderson,Indiana,120,2.665469754527541,1,40.1053196,-85.6802541
Paramount,California,930.0,7.487843048081947,4,33.8894598,-118.1597911
Shoreline,Washington,10946,12.685167944427876,7,47.7556531,-122.3415178
Hendersonville,Tennessee,,,0,36.3047735,-86.6199957
Hanford,California,538,5.374311121598863,2,36.3274502,-119.6456844
Novato,California,240,3.053855136891229,1,38.1074198,-122.5697032
Smyrna,Georgia,,,0,33.8839926,-84.51437609999999
Corvallis,Oregon,3736,9.778069079302657,4,44.5645659,-123.2620435
Mount Prospect,Illinois,225,8.002600700381006,5,42.0664167,-87.9372908
Rosemead,California,930.0,6.189113438858431,4,34.0805651,-118.072846
West Haven,Connecticut,2990,53.73807480304215,24,41.2705484,-72.9469711
Dublin,California,240,1.7494885171508825,1,37.7021521,-121.9357918
Highland,California,930.0,3.005550787554607,4,34.1283442,-117.2086513
Pflugerville,Texas,,,0,30.4393696,-97.62000429999999
Normal,Illinois,9,3.2448575478556143,1,40.5142026,-88.9906312
Port Arthur,Texas,,,0,29.8849504,-93.93994699999999
Carson City,Nevada,26215,17.33964284304717,15,39.1637984,-119.7674034
Greenwood,Indiana,185,4.884062960769351,2,39.6136578,-86.10665259999999
Pocatello,Idaho,7704,16.308341210478996,7,42.8713032,-112.4455344
Sarasota,Florida,,,0,27.3364347,-82.53065269999999
Revere,Massachusetts,2411,31.604841577709223,17,42.4084302,-71.0119948
Doral,Florida,,,0,25.8195424,-80.3553302
Colton,California,930.0,3.2590118929417002,4,34.0739016,-117.3136547
Elyria,Ohio,1005,13.418839171014623,7,41.3683798,-82.10764859999999
Bellevue,Nebraska,730,0.8517518668196474,2,41.1543623,-95.9145568
Ankeny,Iowa,35,0.8636327404988929,1,41.7317884,-93.6001278
Wheaton,Illinois,159,1.9116758792662776,3,41.8661403,-88.1070127
Euless,Texas,,,0,32.8370727,-97.08195409999999
Blue Springs,Missouri,30,1.381036638326253,1,39.0169509,-94.2816148
Cathedral City,California,930.0,7.555604907432173,4,33.7805388,-116.4668036
Hoboken,New Jersey,3293,52.10213298519786,24,40.7439905,-74.0323626
Watsonville,California,240,2.1077008422341965,1,36.910231,-121.7568946
Lake Havasu City,Arizona,,,0,34.483901,-114.3224548
Yucaipa,California,930.0,3.5783039921936384,4,34.033625,-117.0430865
Pensacola,Florida,,,0,30.42130899999999,-87.2169149
Kingsport,Tennessee,92.0,6.170138514070312,3,36.548434,-82.5618186
Richland,Washington,2555,6.677711474922295,3,46.2856907,-119.2844621
Bradenton,Florida,,,0,27.4989278,-82.5748194
Delano,California,,,0,35.7688425,-119.2470536
West New York,New Jersey,3533,54.364186283143866,25,40.7878788,-74.0143064
Gilroy,California,240,1.7278894204914035,1,37.0057816,-121.5682751
Harrisonburg,Virginia,973,15.172728464290858,9,38.4495688,-78.8689155
La Crosse,Wisconsin,812,18.424249879921625,8,43.8013556,-91.23958069999999
Placentia,California,930.0,5.966747688232305,4,33.8722371,-117.8703363
Peabody,Massachusetts,2386,34.70349572603341,18,42.5278731,-70.9286609
Hoffman Estates,Illinois,246,7.856939474558881,5,42.0629915,-88.12271989999999
Perth Amboy,New Jersey,2814.0,43.19224959215196,20,40.5067723,-74.2654234
Florissant,Missouri,30,0.8286928987034362,1,38.789217,-90.322614
Oak Park,Illinois,175,5.6906175824903045,4,41.8850317,-87.7845025
Albany,Oregon,9569,15.375280337029233,6,44.6365107,-123.1059282
DeSoto,Texas,,,0,32.5896998,-96.8570738
Palm Beach Gardens,Florida,,,0,26.8233946,-80.13865469999999
Milford,Connecticut,2833,47.09722735603385,22,41.2306979,-73.064036
West Sacramento,California,25167,37.632852306926964,14,38.5804609,-121.530234
Battle Creek,Michigan,1399,24.053571084850304,11,42.3211522,-85.17971419999999
Southaven,Mississippi,,,0,34.9918587,-90.0022958
Burlington,North Carolina,270,7.254172821804502,3,36.0956918,-79.43779909999999
Commerce City,Colorado,17423,17.55322244479101,9,39.8083196,-104.9338675
Huntersville,North Carolina,142,7.515329100911881,3,35.410694,-80.84285040000002
Minnetonka,Minnesota,696,10.865185503800095,8,44.9211836,-93.4687489
Casa Grande,Arizona,,,0,32.8795022,-111.7573521
Glendora,California,930.0,4.636439972862883,4,34.1361187,-117.865339
Elkhart,Indiana,326,8.952854130445996,5,41.6819935,-85.9766671
Enid,Oklahoma,,,0,36.3955891,-97.8783911
Joplin,Missouri,,,0,37.08422710000001,-94.51328099999999
Grand Island,Nebraska,,,0,40.9263957,-98.3420118
Sammamish,Washington,10946,10.544181845145284,7,47.61626829999999,-122.0355736
Coral Gables,Florida,,,0,25.72149,-80.2683838
Palm Desert,California,930.0,8.395571531911095,4,33.7222445,-116.3744556
Brookhaven,Georgia,,,0,33.8651033,-84.3365917
Lenexa,Kansas,30,1.057192928178879,1,38.9536174,-94.73357089999999
Plainfield,New Jersey,2921.0,40.88008200527338,21,40.6337136,-74.4073736
Pinellas Park,Florida,,,0,27.8428025,-82.6995443
Lakewood,Ohio,1045,15.647821882175673,8,41.4819932,-81.7981908
Grapevine,Texas,,,0,32.9342919,-97.0780654
Tigard,Oregon,5886,11.44260608364183,5,45.4312294,-122.7714861
Kentwood,Michigan,1361,21.202540345910744,10,42.8694731,-85.64474919999999
Apple Valley,Minnesota,696,9.413683932326185,8,44.7319094,-93.21772000000001
Charleston,West Virginia,296,6.093749968258818,2,38.3498195,-81.6326234
Aliso Viejo,California,930.0,7.5114825419554165,4,33.5676842,-117.7256083
Caldwell,Idaho,6242,9.74166159369289,4,43.66293839999999,-116.6873596
Burien,Washington,10946,12.082906166603765,7,47.4703767,-122.3467918
Cerritos,California,930.0,7.074935983081285,4,33.8583483,-118.0647871
Troy,New York,7962,82.7734172939061,40,42.7284117,-73.69178509999999
Parker,Colorado,17423,20.310932771607945,9,39.5186002,-104.7613633
Poway,California,640.0,8.769457479654957,3,32.9628232,-117.0358646
Saginaw,Michigan,1423,21.292860156850637,10,43.4194699,-83.9508068
Downers Grove,Illinois,159,2.2013111284054636,3,41.8089191,-88.01117459999999
Galveston,Texas,,,0,29.3013479,-94.7976958
Monroe,Louisiana,,,0,32.5093109,-92.1193012
Edina,Minnesota,696,10.054618859992441,8,44.8896866,-93.3499489
Leesburg,Virginia,590,15.37951568976071,6,39.1156615,-77.56360149999999
La Mirada,California,930.0,6.4732757426106105,4,33.9172357,-118.0120086
Wilson,North Carolina,220,2.7041547533360917,2,35.7212689,-77.9155395
Rancho Santa Margarita,California,930.0,6.628788924274349,4,33.640855,-117.603104
Bonita Springs,Florida,,,0,26.339806,-81.7786972
Cypress,California,930.0,7.143821896996096,4,33.8169599,-118.0372852
Niagara Falls,New York,2160,19.662646598103326,9,43.0962143,-79.0377388
Olympia,Washington,7946,8.811705020818444,5,47.0378741,-122.9006951
Cuyahoga Falls,Ohio,362,8.46292698824776,6,41.1339449,-81.48455849999999
Methuen,Massachusetts,6469,70.01917646717257,32,42.7262016,-71.1908924
Harrisburg,Pennsylvania,1776.0,30.383433224916296,13,40.2731911,-76.8867008
Covina,California,930.0,4.965278288126433,4,34.0900091,-117.8903397
Logan,Utah,30378,30.168200891820614,14,41.7369803,-111.8338359
Bedford,Texas,,,0,32.844017,-97.1430671
Murray,Utah,29428,14.089012254796895,13,40.6668916,-111.8879909
Huntington,West Virginia,,,0,38.4192496,-82.44515400000002
Azusa,California,930.0,4.919489591362035,4,34.1336186,-117.9075627
Middletown,Ohio,264,3.394163083163069,2,39.5150576,-84.39827629999999
Sheboygan,Wisconsin,832,15.89732820096512,8,43.7508284,-87.71453
Collierville,Tennessee,,,0,35.042036,-89.6645266
East Lansing,Michigan,1439,25.520088718754696,12,42.7369792,-84.48386540000001
Roswell,New Mexico,1310,4.989699997014563,2,33.3942655,-104.5230242
Stillwater,Oklahoma,,,0,36.1156071,-97.0583681
Alexandria,Louisiana,,,0,31.3112936,-92.4451371
Mishawaka,Indiana,235,9.45946371052323,5,41.6619927,-86.15861559999999
Cedar Hill,Texas,,,0,32.5884689,-96.9561152
Dunwoody,Georgia,,,0,33.9462125,-84.3346473
Minot,North Dakota,,,0,48.2329668,-101.2922906
Coeur d'Alene,Idaho,8365,6.573815143701457,5,47.6776832,-116.7804664
Euclid,Ohio,362,8.826282833412385,6,41.5931049,-81.5267873
Salina,Kansas,,,0,38.8402805,-97.61142369999999
Newark,Ohio,349,9.957172472587706,4,40.0581205,-82.4012642
Portage,Michigan,456,8.192921694588163,6,42.2011538,-85.5800022
Chesterfield,Missouri,30,0.367600872766812,1,38.6631083,-90.5770675
Roseville,Michigan,1073,8.889670442975468,6,42.4972583,-82.9371409
Lawrence,Indiana,185,5.563816877458713,2,39.8386516,-86.0252612
St. Louis Park,Minnesota,696,10.621967097919335,8,44.9597376,-93.3702186
Maricopa,Arizona,,,0,33.0581063,-112.0476423
Ceres,California,7620,16.334226461544475,7,37.5949316,-120.9577098
East Providence,Rhode Island,2262,49.834304383624776,21,41.8137116,-71.3700545
Wauwatosa,Wisconsin,904,25.398915291785865,12,43.0494572,-88.0075875
Apopka,Florida,,,0,28.6934076,-81.5322149
Middletown,Connecticut,3647,59.43379083459731,27,41.5623209,-72.6506488
Hattiesburg,Mississippi,,,0,31.3271189,-89.29033919999999
Summerville,South Carolina,,,0,33.0185039,-80.17564809999999
Mentor,Ohio,362,8.908200170072606,6,41.6661573,-81.339552
Palm Springs,California,930.0,6.844943036052706,4,33.8302961,-116.5452921
Mansfield,Ohio,421,8.75791469039314,5,40.75839,-82.5154471
Glenview,Illinois,275,11.504740665382261,6,42.0697509,-87.7878408
San Luis Obispo,California,,,0,35.2827524,-120.6596156
Texas City,Texas,,,0,29.383845,-94.9027002
Twin Falls,Idaho,3976,5.834591021164524,4,42.5629668,-114.4608711
San Jacinto,California,930.0,5.473126821110136,4,33.7839084,-116.958635
Madison,Alabama,,,0,34.6992579,-86.74833180000002
Jeffersonville,Indiana,185,3.7898959655181237,2,38.2775702,-85.7371847
Binghamton,New York,4685.0,74.26698588051515,30,42.09868669999999,-75.91797380000001
Draper,Utah,29428,14.346783320558531,13,40.5246711,-111.8638226
Columbus,Indiana,185,3.58119829054768,2,39.2014404,-85.9213796
Beavercreek,Ohio,264,3.465416159349256,2,39.7092262,-84.06326849999999
Wylie,Texas,,,0,33.0151201,-96.5388789
Lincoln,California,26367,33.772535612711685,15,38.891565,-121.2930079
Elmhurst,Illinois,225,8.566576718990746,5,41.8994744,-87.9403418
Charlottesville,Virginia,711,14.915859873338594,7,38.0293059,-78.47667810000002
Altoona,Pennsylvania,918,19.97310469683106,9,40.5186809,-78.3947359
Lacey,Washington,7946,8.522397399646492,5,47.03426289999999,-122.8231915
Pine Bluff,Arkansas,,,0,34.2284312,-92.00319549999999
Smyrna,Tennessee,,,0,35.9828412,-86.5186045
Sayreville,New Jersey,2814.0,43.360494733724366,20,40.45940210000001,-74.360846
Kannapolis,North Carolina,77,4.25518316921325,2,35.4873613,-80.6217341
Cleveland Heights,Ohio,362,8.530209646664364,6,41.5200518,-81.556235
Biloxi,Mississippi,,,0,30.3960318,-88.88530779999999
Newark,California,240,1.9304070455987077,1,37.5296593,-122.0402399
Littleton,Colorado,23770,22.7698111302377,11,39.613321,-105.0166498
Strongsville,Ohio,1045,15.796556585130617,8,41.3144966,-81.83569
Titusville,Florida,,,0,28.6122187,-80.8075537
Barnstable Town,Massachusetts,921,20.66307197122308,8,41.7003208,-70.3002024
Hackensack,New Jersey,3818.0,57.66169732168295,27,40.8859325,-74.0434736
Farmington,New Mexico,6779,9.198847855810028,4,36.72805830000001,-108.2186856
Cutler Bay,Florida,,,0,25.5808323,-80.34685929999999
Everett,Massachusetts,2411,30.850246999101984,17,42.40843,-71.0536625
Dublin,Ohio,224,3.021447078951301,2,40.0992294,-83.1140771
Coachella,California,930.0,9.78553478372358,4,33.6803003,-116.173894
DeKalb,Illinois,380,12.772350684706026,6,41.9294736,-88.75036469999999
Lompoc,California,,,0,34.6391501,-120.4579409
Blacksburg,Virginia,425,7.7647884383146,3,37.2295733,-80.4139393
Attleboro,Massachusetts,2105,41.779490307693344,19,41.94454409999999,-71.2856082
Keller,Texas,,,0,32.9341893,-97.229298
Haltom City,Texas,,,0,32.7995738,-97.26918169999999
Danville,California,240,1.9085827729876226,1,37.8215929,-121.9999606
Apex,North Carolina,270,4.371389162489352,3,35.732652,-78.85028559999999
Lombard,Illinois,159,2.0329043306951187,3,41.8800296,-88.00784349999999
York,Pennsylvania,946.0,24.25901957117536,10,39.9625984,-76.727745
Sierra Vista,Arizona,,,0,31.5455001,-110.2772856
Oakland Park,Florida,,,0,26.1723065,-80.1319893
El Centro,California,,,0,32.792,-115.5630514
Pittsfield,Massachusetts,8842,93.56339705968533,45,42.4500845,-73.2453824
North Miami Beach,Florida,,,0,25.9331488,-80.1625463
Fort Pierce,Florida,,,0,27.4467056,-80.3256056
Bountiful,Utah,29428,15.06009676387033,13,40.8893895,-111.880771
Freeport,New York,2577,42.14848061431889,18,40.6576022,-73.58318349999999
North Lauderdale,Florida,,,0,26.217305,-80.2258811
Cleveland,Tennessee,8.0,5.9958892075306895,2,35.1595182,-84.8766115
Urbandale,Iowa,35,1.0018698268234612,1,41.6266555,-93.71216559999999
Bell Gardens,California,930.0,7.113650250582932,4,33.9652918,-118.1514588
Jefferson City,Missouri,30,2.69189491949687,1,38.57670170000001,-92.1735164
San Bruno,California,240,2.5747558695134405,1,37.6304904,-122.4110835
St. Cloud,Florida,,,0,28.2489016,-81.2811801
Fond du Lac,Wisconsin,1084,15.44062338898378,10,43.7730448,-88.4470508
Salem,Massachusetts,2386,35.46633754416023,18,42.51954,-70.8967155
Fairfield,Ohio,264,3.392736649573762,2,39.3454673,-84.5603187
Rancho Palos Verdes,California,930.0,9.554261086057991,4,33.7444613,-118.3870173
Moline,Illinois,222,4.6191060783649025,3,41.5067003,-90.51513419999999
Belleville,Illinois,30,1.1204823274666984,1,38.5200504,-89.9839935
Danville,Virginia,394,12.384081474285328,4,36.5859718,-79.39502279999999
Concord,New Hampshire,11116,81.1685573699784,41,43.2081366,-71.5375718
Beaumont,California,930.0,4.388151247779008,4,33.9294606,-116.977248
Rohnert Park,California,,,0,38.3396367,-122.7010984
Altamonte Springs,Florida,,,0,28.6611089,-81.3656242
Burlington,Vermont,8750,50.04257794612885,24,44.4758825,-73.21207199999999
Plainfield,Illinois,159,3.2048162079877325,3,41.632223,-88.2120315
State College,Pennsylvania,556.0,12.617553027075878,7,40.7933949,-77.8600012
Manassas,Virginia,344,10.39597467094831,4,38.7509488,-77.47526669999999
Morgan Hill,California,240,1.6356996417704504,1,37.1305012,-121.6543901
Urbana,Illinois,,,0,40.1105875,-88.2072697
Oro Valley,Arizona,,,0,32.3909071,-110.966488
Midland,Michigan,1405,20.733102140166178,10,43.6155825,-84.2472116
Kearny,New Jersey,3533.0,56.27021493009955,26,40.7684342,-74.1454214
Burleson,Texas,,,0,32.5420821,-97.3208492
Rockwall,Texas,,,0,32.93123360000001,-96.4597089
Buffalo Grove,Illinois,262,10.858254187771642,6,42.1662831,-87.9631308
Bozeman,Montana,7840,12.020762258671462,5,45.6769979,-111.0429339
Linden,New Jersey,3052.0,49.72974324555657,23,40.6220478,-74.24459019999999
Hutchinson,Kansas,,,0,38.0608445,-97.92977429999999
Bartlett,Illinois,209,4.599151015023721,4,41.9950276,-88.1856301
Bentonville,Arkansas,,,0,36.3728538,-94.2088172
Westfield,Massachusetts,6524,81.78880617880816,39,42.1250929,-72.749538
Brea,California,930.0,5.859638857227847,4,33.9166805,-117.9000604
Riverton,Utah,29428,15.365790241473707,13,40.521893,-111.9391023
The Colony,Texas,,,0,33.0806083,-96.89283089999999
Shelton,Connecticut,3016,53.892092743479054,25,41.3164856,-73.0931641
Woonsocket,Rhode Island,3449,55.89688818904888,25,42.00287609999999,-71.51478390000001
Leominster,Massachusetts,7993,79.05509097624177,38,42.5250906,-71.759794
Campbell,California,240,1.9043047640558983,1,37.2871651,-121.9499568
Findlay,Ohio,907,8.442985456290502,4,41.04422,-83.6499321
Prescott Valley,Arizona,777,1.7821006063373055,1,34.6100243,-112.315721
Ocoee,Florida,,,0,28.5691677,-81.5439619
Brentwood,Tennessee,,,0,36.0331164,-86.78277720000001
Prescott,Arizona,777,2.0882468843920408,1,34.5400242,-112.4685025
Beverly,Massachusetts,2223,32.0392673447714,17,42.5584283,-70.880049
Covington,Kentucky,264,3.7036217887014127,2,39.0836712,-84.5085536
Sumter,South Carolina,50,2.4006613205709866,1,33.9204354,-80.3414693
Edmonds,Washington,10946,13.150371421593801,7,47.8106521,-122.3773552
Cedar Falls,Iowa,90,5.5024874993543005,2,42.5348993,-92.4453161
Wilkes-Barre,Pennsylvania,3025.0,42.32134886924318,23,41.2459149,-75.88130749999999
Quincy,Illinois,,,0,39.9356016,-91.4098726
La Puente,California,930.0,5.620693112375495,4,34.0200114,-117.9495083
Coppell,Texas,,,0,32.9545687,-97.01500779999999
Warren,Ohio,462,12.504371592147926,7,41.2375569,-80.81841659999999
Peachtree Corners,Georgia,,,0,33.9698929,-84.2214551
San Gabriel,California,930.0,6.369103204382467,4,34.09611110000001,-118.1058333
Crystal Lake,Illinois,278,10.447144489581046,6,42.2411344,-88.31619649999999
Fitchburg,Massachusetts,8313,76.99852434006317,38,42.5834228,-71.8022955
Huntsville,Texas,,,0,30.7235263,-95.55077709999999
Mankato,Minnesota,610,13.815111071277364,7,44.1635775,-93.99939959999999
Goose Creek,South Carolina,,,0,32.9810059,-80.03258670000001
Hagerstown,Maryland,929,21.759652914093877,9,39.6417629,-77.71999319999999
Carol Stream,Illinois,209,4.973440667787829,4,41.91252859999999,-88.13479269999999
Streamwood,Illinois,209,4.592220529858271,4,42.0255827,-88.17840849999999
Florence,Alabama,,,0,34.79981,-87.677251
Maplewood,Minnesota,741,13.137399252420035,9,44.9530215,-92.9952153
Meridian,Mississippi,,,0,32.3643098,-88.703656
Norwich,Connecticut,2314,47.79212573362706,21,41.5242649,-72.07591049999999
Hickory,North Carolina,92,3.0250637727651353,2,35.7344538,-81.3444573
Holyoke,Massachusetts,6829,84.26003483263744,40,42.2042586,-72.6162009
Hilton Head Island,South Carolina,,,0,32.216316,-80.752608
La Quinta,California,930.0,9.085476793003462,4,33.6633573,-116.3100095
Sherman,Texas,,,0,33.6356618,-96.6088805
Marana,Arizona,,,0,32.436381,-111.2224422
Clovis,New Mexico,,,0,34.4047987,-103.2052272
Moorhead,Minnesota,65,6.091824180765743,2,46.8737648,-96.76780389999999
New Berlin,Wisconsin,904,24.98512934026338,12,42.9764027,-88.1084224
Calexico,California,,,0,32.6789476,-115.4988834
Duncanville,Texas,,,0,32.6518004,-96.9083366
Culver City,California,930.0,8.584659801984232,4,34.0211224,-118.3964665
Romeoville,Illinois,159,3.0605335977859713,3,41.6475306,-88.0895061
Shakopee,Minnesota,696,10.866022827683246,8,44.7973962,-93.5272861
Marlborough,Massachusetts,5868,71.8884185083762,33,42.3459271,-71.5522874
Lancaster,Ohio,224,4.769386735943136,2,39.7136754,-82.5993294
Atlantic City,New Jersey,524,6.285088912422689,2,39.3642834,-74.4229266
Bullhead City,Arizona,2535,5.182601560085509,2,35.1359386,-114.5285981
Wausau,Wisconsin,4076,28.281325704914888,11,44.9591352,-89.6301221
Woburn,Massachusetts,4856,53.61117522813349,25,42.4792618,-71.1522765
Germantown,Tennessee,,,0,35.0867577,-89.8100858
Oakley,California,2782,7.7318337457448,3,37.9974219,-121.7124536
Cape Girardeau,Missouri,,,0,37.3058839,-89.51814759999999
Greenacres,Florida,,,0,26.6276276,-80.1353896
Puyallup,Washington,9946,9.226234286966802,6,47.1853785,-122.2928974
Pacifica,California,240,2.7080760795386305,1,37.6138253,-122.4869194
Ormond Beach,Florida,,,0,29.2858129,-81.0558894
Hallandale Beach,Florida,,,0,25.9812024,-80.14837899999999
Chelsea,Massachusetts,2411,31.459049685237442,17,42.3917638,-71.0328284
Annapolis,Maryland,223,5.718526607719939,2,38.9784453,-76.4921829
Winter Garden,Florida,,,0,28.5652787,-81.58618469999999
Hurst,Texas,,,0,32.8234621,-97.1705678
Stanton,California,930.0,6.992243906871088,4,33.8025155,-117.9931165
Rock Island,Illinois,222,4.517698201021776,3,41.5094771,-90.5787476
Muskogee,Oklahoma,,,0,35.7478769,-95.3696909
Northglenn,Colorado,17423,17.16592337017596,9,39.8961821,-104.9811468
Bremerton,Washington,8946,10.443619367103668,6,47.5673202,-122.6329356
Grove City,Ohio,224,3.7366622938801,2,39.88145189999999,-83.0929644
Hanover Park,Illinois,209,4.6407382304620075,4,41.9994722,-88.1450735
Montclair,California,930.0,3.95260674206803,4,34.0775104,-117.6897776
Lancaster,Texas,,,0,32.5920798,-96.7561082
Carpentersville,Illinois,278,10.888192394640566,6,42.1211364,-88.2578582
Muskegon,Michigan,1254,20.99655003849914,9,43.2341813,-86.24839209999999
Lima,Ohio,224,3.705958095137735,2,40.742551,-84.1052256
Friendswood,Texas,,,0,29.5293998,-95.2010447
Huber Heights,Ohio,264,3.3918725829212564,2,39.843947,-84.12466080000002
Apache Junction,Arizona,,,0,33.4150485,-111.5495777
Oviedo,Florida,,,0,28.669997,-81.20812029999999
Wheeling,Illinois,262,10.997788451042197,6,42.1391927,-87.9289591
Lake Oswego,Oregon,5886,10.866264711389697,5,45.42067489999999,-122.6706498
Brookfield,Wisconsin,888,21.33421122653946,11,43.0605671,-88.1064787
Florence,South Carolina,50,1.522599472572972,1,34.1954331,-79.7625625
Roy,Utah,28778,15.260357213999002,12,41.1616108,-112.0263313
Park Ridge,Illinois,225,8.338957444048843,5,42.0111412,-87.84061919999999
Valley Stream,New York,2827,46.70511662602195,20,40.6642699,-73.70846449999999
Panama City,Florida,,,0,30.1588129,-85.6602058
Westerville,Ohio,224,3.072350238492694,2,40.1261743,-82.92906959999999
Weslaco,Texas,,,0,26.1595194,-97.9908366
Martinez,California,240,2.2739367054759785,1,38.0193657,-122.1341321
Phenix City,Alabama,,,0,32.4709761,-85.0007653
Spanish Fork,Utah,28964,16.89202950972419,12,40.114955,-111.654923
Spartanburg,South Carolina,100,6.931403938768279,3,34.9495672,-81.9320482
Aventura,Florida,,,0,25.9564812,-80.1392121
Monrovia,California,930.0,5.527477958966736,4,34.1442616,-118.0019482
Delaware,Ohio,224,2.563974561000678,2,40.2986724,-83.067965
Braintree Town,Massachusetts,2491,38.27886038714542,18,42.2079017,-71.0040013
Dover,Delaware,189,6.170177990507371,2,39.158168,-75.5243682
Keizer,Oregon,5886,11.749750484359158,5,44.9901194,-123.0262077
Addison,Illinois,225,8.341736437589892,5,41.931696,-87.9889556
Lincoln Park,Michigan,1073,7.895151740395001,6,42.2505943,-83.1785361
Texarkana,Texas,,,0,33.425125,-94.04768820000001
