,city,state,area,time,number,lat,lon,score
123,Salt Lake City,Utah,29428.0,14.359361631390836,13,40.760779299999996,-111.89104740000002,26642.13144153158
192,West Valley City,Utah,29428.0,15.594161484855269,13,40.691613200000006,-112.00105009999999,24532.51496539512
88,Reno,Nevada,26127.0,17.602143313492515,14,39.529632899999996,-119.8138027,20780.31030003155
168,Lakewood,Colorado,22970.0,18.459198672189707,10,39.7047095,-105.08137340000002,12443.660425306643
150,Elk Grove,California,25167.0,36.318686645496214,14,38.4087993,-121.37161780000001,9701.286928107917
34,Sacramento,California,25167.0,36.88766509420649,14,38.5815719,-121.49439960000001,9551.648202730446
20,Denver,Colorado,17423.0,16.612956562514825,9,39.739235799999996,-104.990251,9438.837657218492
196,Thornton,Colorado,17423.0,17.181978386623086,9,39.8680412,-104.9719243,9126.248239380922
53,Aurora,Colorado,17423.0,18.946718424148614,9,39.729431899999994,-104.8319195,8276.208918592522
158,Fort Collins,Colorado,20113.0,28.253384919948967,11,40.5852602,-105.084423,7830.6723469366025
189,Bellevue,Washington,10946.0,11.375620341586153,7,47.610377,-122.20067859999999,6735.632668742552
41,Colorado Springs,Colorado,17817.0,24.823254080998392,9,38.8338816,-104.82136340000001,6459.789658389163
19,Seattle,Washington,10946.0,12.111507912845402,7,47.6062095,-122.33207079999998,6326.379881957977
106,Tacoma,Washington,9946.0,9.808646675204,6,47.252876799999996,-122.4442906,6084.019740547832
62,Stockton,California,13230.0,20.608901985681392,8,37.9577016,-121.29077959999998,5135.644784643805
101,Spokane,Washington,8720.0,10.930699644297317,6,47.6587802,-117.4260466,4786.518859961174
28,Las Vegas,Nevada,2535.0,1.2042245668135592,2,36.169941200000004,-115.13982959999998,4210.178184136771
93,North Las Vegas,Nevada,2535.0,1.3501435264077508,2,36.1988592,-115.1175013,3755.1563228906907
98,Boise City,Idaho,8296.0,11.234040468828043,5,43.6187102,-116.2146068,3692.3491699266838
63,Anchorage,Alaska,1640.0,0.9881807938924444,2,61.2180556,-149.90027780000003,3319.2306714240813
103,Modesto,California,7170.0,13.10238237635323,6,37.63909719999999,-120.99687820000001,3283.372348958549
161,Springfield,Massachusetts,6255.0,74.36159152352806,36,42.1014831,-72.589811,3028.176177869363
144,Vancouver,Washington,5927.0,8.084415993457345,4,45.6387281,-122.6614861,2932.5556749166176
70,Henderson,Nevada,2535.0,1.7358585497678225,2,36.0395247,-114.9817213,2920.7448963385473
154,Eugene,Oregon,5044.0,5.337217812871536,3,44.0520691,-123.08675359999998,2835.1850215868676
27,Portland,Oregon,4525.0,4.797105864888348,3,45.523062200000005,-122.67648159999999,2829.831232068496
130,Worcester,Massachusetts,5811.0,68.87818917597255,33,42.262593200000005,-71.8022934,2784.0888718789743
151,Salem,Oregon,5886.0,11.765784287514773,5,44.9428975,-123.03509629999999,2501.3207178402513
176,Paterson,New Jersey,3928.0,57.9065876362977,28,40.916765399999996,-74.17181099999998,1899.3348509981706
112,Yonkers,New York,4146.0,65.34406798121756,29,40.9312099,-73.89874689999998,1840.0140014937538
68,Newark,New Jersey,3293.0,53.69165227215301,25,40.735657,-74.1723667,1533.292355815572
40,Omaha,Nebraska,730.0,0.9678785590416306,2,41.25236339999999,-95.9979883,1508.453706677474
73,Jersey City,New Jersey,3293.0,55.192828595712086,25,40.72815749999999,-74.0776417,1491.5887098853239
0,New York,New York,3122.0,50.085955188422226,23,40.7127837,-74.00594129999999,1433.6553976033292
102,Rochester,New York,2808.0,25.643417601512603,13,43.16103,-77.61092190000001,1423.5232045609541
197,New Haven,Connecticut,2990.0,52.80939965684414,24,41.308274,-72.9278835,1358.8490016227602
174,Bridgeport,Connecticut,2984.0,53.29698307570193,24,41.18654779999999,-73.19517669999998,1343.7158328132402
23,Boston,Massachusetts,2411.0,31.47103947089088,17,42.360082500000004,-71.0588801,1302.3719803697904
33,Fresno,California,3140.0,12.458176029754641,5,36.7468422,-119.7725868,1260.2165808624559
99,San Bernardino,California,930.0,3.0970273410081064,4,34.1083449,-117.2897652,1201.151811203937
107,Fontana,California,930.0,3.2615317648711155,4,34.0922335,-117.435048,1140.5683795776251
75,Buffalo,New York,2200.0,19.537152338837547,10,42.88644679999999,-78.8783689,1126.0597050403605
137,Rancho Cucamonga,California,930.0,3.4638508364652214,4,34.10639889999999,-117.5931084,1073.949247709573
181,Syracuse,New York,2148.0,34.008225896150215,17,43.0481221,-76.14742439999998,1073.7402213072712
4,Philadelphia,Pennsylvania,2529.0,38.16433292313873,15,39.9525839,-75.1652215,993.9909096904537
133,Providence,Rhode Island,2262.0,48.866091675134726,21,41.8239891,-71.4128343,972.0851079271225
145,Ontario,California,930.0,3.8827848126406,4,34.0633443,-117.65088759999999,958.0752422563708
109,Moreno Valley,California,930.0,3.994920827335603,4,33.9424658,-117.2296717,931.1824090594155
58,Riverside,California,930.0,4.001337951149576,4,33.9533487,-117.3961564,929.6890303732658
164,Pomona,California,930.0,4.345615560123927,4,34.055103,-117.7499909,856.0352264326654
31,Albuquerque,New Mexico,1340.0,6.634025491155986,4,35.0853336,-106.6055534,807.9558945237055
195,Sterling Heights,Michigan,1073.0,8.14930158824515,6,42.5803122,-83.0302033,790.0063496590194
190,Warren,Michigan,1073.0,8.285768788658824,6,42.5144566,-83.01465259999998,776.9948889730106
152,Corona,California,930.0,4.822453638179692,4,33.8752935,-117.56643840000001,771.3915527457866
17,Detroit,Michigan,1073.0,8.458576921158226,6,42.331427000000005,-83.0457538,761.120937955418
122,Grand Rapids,Michigan,1361.0,21.24632732087914,10,42.9633599,-85.6680863,640.5813011562338
185,Fullerton,California,930.0,6.246166335528959,4,33.8703596,-117.9242966,595.5653116120499
67,Toledo,Ohio,1217.0,14.572833387285304,7,41.6639383,-83.55521200000003,584.5808960824852
55,Anaheim,California,930.0,6.402451941002541,4,33.8352932,-117.91450359999999,581.0273992337842
184,Orange,California,930.0,6.4139005771857445,4,33.787794399999996,-117.8531119,579.9902813012174
82,Madison,Wisconsin,1073.0,22.333148105791306,12,43.07305170000001,-89.4012302,576.5420951406787
183,Pasadena,California,930.0,6.519231913359902,4,34.1477849,-118.1445155,570.6193688824877
56,Santa Ana,California,930.0,6.7535385311683775,4,33.7455731,-117.8678338,550.8223552485503
155,Palmdale,California,930.0,6.807167265571857,4,34.5794343,-118.11646129999998,546.4828253617902
47,Cleveland,Ohio,1045.0,15.418813812520305,8,41.499320000000004,-81.6943605,542.1947564611978
81,Irvine,California,930.0,6.88503054517941,4,33.6839473,-117.79469420000001,540.3026138503594
135,Garden Grove,California,930.0,6.906782385475321,4,33.773905299999996,-117.9414477,538.6010145365238
45,Minneapolis,Minnesota,696.0,10.43296037805626,8,44.977753,-93.2650108,533.6931990761917
115,Glendale,California,930.0,7.317092254701557,4,34.1425078,-118.255075,508.39867402378786
65,St. Paul,Minnesota,741.0,13.174121310965527,9,44.953702899999996,-93.0899578,506.2197199026119
1,Los Angeles,California,930.0,7.439936502677304,4,34.0522342,-118.24368490000002,500.0042673296119
153,Lancaster,California,930.0,7.5102090618890545,4,34.6867846,-118.1541632,495.32575849017746
111,Huntington Beach,California,930.0,7.898957169434342,4,33.660297,-117.99922649999999,470.9482429395671
35,Long Beach,California,930.0,8.273026556542026,4,33.770050399999995,-118.1937395,449.6540624613795
171,Torrance,California,930.0,8.854907628960989,4,33.835849200000006,-118.34062879999999,420.10601983394093
71,Lincoln,Nebraska,730.0,3.4891119601048035,2,40.8257625,-96.6851982,418.44458323319196
30,Milwaukee,Wisconsin,904.0,26.292759691403603,12,43.0389025,-87.9064736,412.58506628145034
132,Santa Clarita,California,930.0,9.351752982883584,4,34.3916641,-118.54258600000001,397.78638366610807
170,Rockford,Illinois,892.0,23.27794730433456,10,42.2711311,-89.09399520000001,383.19529997127444
136,Oceanside,California,930.0,9.970330415367012,4,33.1958696,-117.3794834,373.10699295045026
166,Escondido,California,930.0,10.67909979429106,4,33.1192068,-117.086421,348.34396827986143
61,Pittsburgh,Pennsylvania,863.0,25.879502294895506,10,40.44062479999999,-79.9958864,333.4685459427165
105,Oxnard,California,690.0,5.649254736673747,2,34.1975048,-119.17705159999998,244.28000936855207
117,Akron,Ohio,362.0,8.911045625806226,6,41.081444700000006,-81.51900529999998,243.7424395752085
108,Fayetteville,North Carolina,270.0,3.5507673987581114,3,35.0526641,-78.87835849999998,228.1197017532884
177,Naperville,Illinois,159.0,2.411828578231675,3,41.7508391,-88.15353520000001,197.77524999298703
18,El Paso,Texas,560.0,2.9756918477571626,1,31.7618778,-106.48502169999999,188.19152944955744
114,Aurora,Illinois,159.0,2.670578408280486,3,41.7605849,-88.32007150000003,178.61299204733984
42,Raleigh,North Carolina,270.0,4.589118044222036,3,35.7795897,-78.6381787,176.5045030863472
159,Cary,North Carolina,270.0,4.648081727053425,3,35.791540000000005,-78.78111690000001,174.26543842495775
182,Dayton,Ohio,264.0,3.392826080481438,2,39.758947799999994,-84.1916069,155.6224773906116
64,Cincinnati,Ohio,264.0,3.6610229928107376,2,39.103118200000004,-84.5120196,144.22198413854534
2,Chicago,Illinois,285.0,12.21292117214078,6,41.8781136,-87.62979820000001,140.01564211359414
80,Durham,North Carolina,270.0,5.879873850892356,3,35.99403289999999,-78.898619,137.758057492521
9,San Jose,California,240.0,1.7584038084147078,1,37.338208200000004,-121.88632859999998,136.48742049550748
96,Fremont,California,240.0,1.8361322319216664,1,37.548269700000006,-121.98857190000001,130.70954031933738
14,Columbus,Ohio,224.0,3.5203046023140283,2,39.9611755,-82.99879419999998,127.26171471227597
76,Fort Wayne,Indiana,354.0,11.263849595806404,4,41.079273,-85.13935129999999,125.71190585918201
173,Joliet,Illinois,159.0,3.8745942854873134,3,41.525031,-88.0817251,123.10966383929589
167,Sunnyvale,California,240.0,1.9897127600319533,1,37.368829999999996,-122.03634960000001,120.62042563176092
160,Hayward,California,240.0,1.9969985965894776,1,37.6688205,-122.08079640000001,120.18035486348252
66,Greensboro,North Carolina,297.0,11.323433489065245,4,36.072635399999996,-79.79197540000001,104.91517446075183
44,Oakland,California,240.0,2.366059738507441,1,37.8043637,-122.27111370000002,101.43446342204231
25,Baltimore,Maryland,223.0,4.438669808470442,2,39.2903848,-76.6121893,100.4805536895052
157,Salinas,California,240.0,2.4154272070784435,1,36.6777372,-121.6555013,99.36130523688588
29,Louisville/Jefferson County,Kentucky,185.0,3.8487835959463386,2,38.252664700000004,-85.7584557,96.1342696403341
12,San Francisco,California,240.0,2.6131242984665675,1,37.7749295,-122.4194155,91.84408110277674
21,Washington,District of Columbia,248.0,8.273433272569724,3,38.9071923,-77.03687070000001,89.92639155823082
165,Alexandria,Virginia,248.0,8.657588319653929,3,38.804835499999996,-77.0469214,85.93617212209277
13,Indianapolis,Indiana,185.0,5.450400034683862,2,39.768403,-86.158068,67.88492544501112
97,Richmond,Virginia,199.0,5.905663269704988,2,37.540724600000004,-77.4360481,67.39293823975198
60,Lexington-Fayette,Kentucky,120.0,2.4105981843754725,1,38.040583700000006,-84.50371640000002,49.78017521866221
59,St. Louis,Missouri,30.0,0.7943478194751603,1,38.6270025,-90.1994042,37.76683118463337
128,Knoxville,Tennessee,73.0,5.808194187079315,3,35.96063839999999,-83.9207392,37.705350913917265
169,Kansas City,Kansas,30.0,0.8114488837935674,1,39.114053000000006,-94.6274636,36.970905498998754
16,Charlotte,North Carolina,77.0,4.435140054140642,2,35.2270869,-80.8431267,34.72269153174222
36,Kansas City,Missouri,30.0,0.8877160991441336,1,39.0997265,-94.5785667,33.79458818976433
104,Des Moines,Iowa,35.0,1.114887303022745,1,41.600544799999994,-93.6091064,31.393307561316767
86,Winston-Salem,North Carolina,77.0,5.290348088258078,2,36.09985959999999,-80.24421600000001,29.109615743773617
127,Overland Park,Kansas,30.0,1.0327868767312278,1,38.9822282,-94.6707917,29.04761928709827
193,Olathe,Kansas,30.0,1.1858460701797218,1,38.8813958,-94.8191285,25.29839306669316
194,Columbia,South Carolina,50.0,3.0732287540684187,1,34.0007104,-81.0348144,16.269534096285128
156,McKinney,Texas,0.0,0.0,0,33.197246500000006,-96.6397822,1.0
147,Peoria,Arizona,0.0,0.0,0,33.5805955,-112.23737790000001,1.0
149,Pembroke Pines,Florida,0.0,0.0,0,26.007765,-80.2962555,1.0
11,Jacksonville,Florida,0.0,0.0,0,30.3321838,-81.65565099999998,1.0
148,Springfield,Missouri,0.0,0.0,0,37.20895720000001,-93.2922989,1.0
39,Virginia Beach,Virginia,0.0,0.0,0,36.8529263,-75.97798499999998,1.0
10,Austin,Texas,0.0,0.0,0,30.267153000000004,-97.7430608,1.0
162,Pasadena,Texas,0.0,0.0,0,29.6910625,-95.2091006,1.0
3,Houston,Texas,0.0,0.0,0,29.7604267,-95.36980279999999,1.0
191,Miramar,Florida,0.0,0.0,0,25.9860762,-80.30356019999998,1.0
5,Phoenix,Arizona,0.0,0.0,0,33.4483771,-112.07403729999999,1.0
188,Hampton,Virginia,0.0,0.0,0,37.0298687,-76.34522179999998,1.0
187,Killeen,Texas,0.0,0.0,0,31.117119399999996,-97.7277959,1.0
186,McAllen,Texas,0.0,0.0,0,26.203407100000003,-98.2300124,1.0
180,Savannah,Georgia,0.0,0.0,0,32.0835407,-81.09983419999998,1.0
179,Mesquite,Texas,0.0,0.0,0,32.76679550000001,-96.5991593,1.0
178,Frisco,Texas,0.0,0.0,0,33.1506744,-96.8236116,1.0
6,San Antonio,Texas,0.0,0.0,0,29.4241219,-98.4936282,1.0
175,Clarksville,Tennessee,0.0,0.0,0,36.5297706,-87.3594528,1.0
7,San Diego,California,0.0,0.0,0,32.715738,-117.1610838,1.0
146,Sioux Falls,South Dakota,0.0,0.0,0,43.5445959,-96.7311034,1.0
8,Dallas,Texas,0.0,0.0,0,32.7766642,-96.7969879,1.0
163,Macon-Bibb County,Georgia,0.0,0.0,0,32.8406946,-83.6324022,1.0
172,Hollywood,Florida,0.0,0.0,0,26.0112014,-80.1494901,1.0
119,Amarillo,Texas,0.0,0.0,0,35.2219971,-101.8312969,1.0
143,Cape Coral,Florida,0.0,0.0,0,26.5628537,-81.94953309999998,1.0
142,Jackson,Mississippi,0.0,0.0,0,32.298757300000005,-90.1848103,1.0
90,Garland,Texas,0.0,0.0,0,32.912624,-96.6388833,1.0
89,Hialeah,Florida,0.0,0.0,0,25.8575963,-80.2781057,1.0
87,Glendale,Arizona,0.0,0.0,0,33.538652299999995,-112.18598659999999,1.0
85,Gilbert,Arizona,0.0,0.0,0,33.3528264,-111.789027,1.0
84,Lubbock,Texas,0.0,0.0,0,33.5778631,-101.85516650000001,1.0
83,Norfolk,Virginia,0.0,0.0,0,36.8507689,-76.28587259999998,1.0
79,Laredo,Texas,0.0,0.0,0,27.530567100000003,-99.4803241,1.0
78,St. Petersburg,Florida,0.0,0.0,0,27.751828399999997,-82.6267345,1.0
77,Chandler,Arizona,0.0,0.0,0,33.3061605,-111.8412502,1.0
74,Chula Vista,California,0.0,0.0,0,32.6400541,-117.0841955,1.0
72,Orlando,Florida,0.0,0.0,0,28.5383355,-81.3792365,1.0
69,Plano,Texas,0.0,0.0,0,33.0198431,-96.6988856,1.0
32,Tucson,Arizona,0.0,0.0,0,32.2217429,-110.926479,1.0
57,Corpus Christi,Texas,0.0,0.0,0,27.800582799999997,-97.396381,1.0
54,Honolulu,Hawaii,0.0,0.0,0,21.3069444,-157.8583333,1.0
37,Mesa,Arizona,0.0,0.0,0,33.4151843,-111.83147240000001,1.0
52,Tampa,Florida,0.0,0.0,0,27.950575,-82.4571776,1.0
51,Bakersfield,California,0.0,0.0,0,35.3732921,-119.0187125,1.0
50,Arlington,Texas,0.0,0.0,0,32.735687,-97.1080656,1.0
49,New Orleans,Louisiana,0.0,0.0,0,29.95106579999999,-90.0715323,1.0
48,Wichita,Kansas,0.0,0.0,0,37.68717609999999,-97.330053,1.0
46,Tulsa,Oklahoma,0.0,0.0,0,36.1539816,-95.992775,1.0
43,Miami,Florida,0.0,0.0,0,25.7616798,-80.1917902,1.0
91,Chesapeake,Virginia,0.0,0.0,0,36.7682088,-76.2874927,1.0
92,Irving,Texas,0.0,0.0,0,32.814017699999994,-96.9488945,1.0
26,Oklahoma City,Oklahoma,0.0,0.0,0,35.4675602,-97.5164276,1.0
124,Huntsville,Alabama,0.0,0.0,0,34.730368799999994,-86.5861037,1.0
141,Tempe,Arizona,0.0,0.0,0,33.4255104,-111.9400054,1.0
140,Chattanooga,Tennessee,0.0,0.0,0,35.0456297,-85.3096801,1.0
139,Port St. Lucie,Florida,0.0,0.0,0,27.273049199999996,-80.3582261,1.0
138,Santa Rosa,California,0.0,0.0,0,38.440428999999995,-122.7140548,1.0
134,Fort Lauderdale,Florida,0.0,0.0,0,26.122438600000002,-80.13731740000001,1.0
131,Newport News,Virginia,0.0,0.0,0,37.087082099999996,-76.4730122,1.0
15,Fort Worth,Texas,0.0,0.0,0,32.7554883,-97.3307658,1.0
129,Brownsville,Texas,0.0,0.0,0,25.9017472,-97.4974838,1.0
126,Grand Prairie,Texas,0.0,0.0,0,32.7459645,-96.9977846,1.0
125,Tallahassee,Florida,0.0,0.0,0,30.4382559,-84.28073289999998,1.0
121,Mobile,Alabama,0.0,0.0,0,30.6953657,-88.0398912,1.0
94,Scottsdale,Arizona,0.0,0.0,0,33.494170399999994,-111.9260519,1.0
120,Augusta-Richmond County,Georgia,0.0,0.0,0,33.4734978,-82.0105148,1.0
38,Atlanta,Georgia,0.0,0.0,0,33.7489954,-84.3879824,1.0
118,Little Rock,Arkansas,0.0,0.0,0,34.7464809,-92.2895948,1.0
116,Shreveport,Louisiana,0.0,0.0,0,32.5251516,-93.75017890000001,1.0
113,Montgomery,Alabama,0.0,0.0,0,32.366805199999995,-86.2999689,1.0
110,Columbus,Georgia,0.0,0.0,0,32.4609764,-84.9877094,1.0
22,Memphis,Tennessee,0.0,0.0,0,35.1495343,-90.0489801,1.0
24,Nashville-Davidson,Tennessee,0.0,0.0,0,36.1626638,-86.78160159999999,1.0
100,Birmingham,Alabama,0.0,0.0,0,33.5206608,-86.80248999999998,1.0
95,Baton Rouge,Louisiana,0.0,0.0,0,30.458282899999997,-91.1403196,1.0
198,Waco,Texas,0.0,0.0,0,31.549333,-97.1466695,1.0
